[
  {
    "lat": 9.037802778,
    "lon": 7.285102778,
    "elevation": 1158,
    "frequency": 11630,
    "range": 40,
    "ident": "ABC",
    "areaCode": "DN",
    "name": "ABUJA VOR/DME"
  },
  {
    "lat": 11.549211111,
    "lon": 43.154819444,
    "elevation": 49,
    "frequency": 11460,
    "range": 40,
    "ident": "ABI",
    "areaCode": "HD",
    "name": "DJIBOUTI TACAN"
  },
  {
    "lat": 32.462833333,
    "lon": 13.169508333,
    "elevation": 489,
    "frequency": 11510,
    "range": 130,
    "ident": "ABU",
    "areaCode": "HL",
    "name": "ABU ARGUB VOR/DME"
  },
  {
    "lat": -28.570652778,
    "lon": 16.533833333,
    "elevation": 98,
    "frequency": 11210,
    "range": 130,
    "ident": "ABV",
    "areaCode": "FA",
    "name": "ALEXANDER BAY VOR/DME"
  },
  {
    "lat": 5.634069444,
    "lon": -0.155363889,
    "elevation": 258,
    "frequency": 11310,
    "range": 130,
    "ident": "ACC",
    "areaCode": "DG",
    "name": "ACCRA VOR/DME"
  },
  {
    "lat": 5.282816667,
    "lon": -3.916977778,
    "elevation": 46,
    "frequency": 11430,
    "range": 130,
    "ident": "AD",
    "areaCode": "DI",
    "name": "ABIDJAN VOR/DME"
  },
  {
    "lat": 30.321916667,
    "lon": -9.383472222,
    "elevation": 300,
    "frequency": 11720,
    "range": 130,
    "ident": "ADM",
    "areaCode": "GM",
    "name": "AL-MASSIRA (AGADIR) VOR/DME"
  },
  {
    "lat": 27.817038889,
    "lon": -0.205866667,
    "elevation": 952,
    "frequency": 11260,
    "range": 130,
    "ident": "ADR",
    "areaCode": "DA",
    "name": "ADRAR VOR/DME"
  },
  {
    "lat": 8.975041667,
    "lon": 38.7994,
    "elevation": 7656,
    "frequency": 11290,
    "range": 40,
    "ident": "ADS",
    "areaCode": "HA",
    "name": "ADDIS (ADDIS ABEBA) VOR/DME"
  },
  {
    "lat": 13.846633333,
    "lon": 20.86305,
    "elevation": 0,
    "frequency": 11450,
    "range": 130,
    "ident": "AE",
    "areaCode": "FT",
    "name": "ABECHE VOR"
  },
  {
    "lat": -29.481019444,
    "lon": 18.562491667,
    "elevation": 2648,
    "frequency": 11670,
    "range": 130,
    "ident": "AGV",
    "areaCode": "FA",
    "name": "AGGENEYS VOR/DME"
  },
  {
    "lat": 4.895266667,
    "lon": 8.104941667,
    "elevation": 200,
    "frequency": 11380,
    "range": 130,
    "ident": "AKW",
    "areaCode": "DN",
    "name": "AKWA IBOM VOR/DME"
  },
  {
    "lat": 35.191083333,
    "lon": -3.841722222,
    "elevation": 46,
    "frequency": 11500,
    "range": 40,
    "ident": "ALM",
    "areaCode": "GM",
    "name": "AL HOCEIMA VOR/DME"
  },
  {
    "lat": 36.690997222,
    "lon": 3.215480556,
    "elevation": 118,
    "frequency": 11250,
    "range": 130,
    "ident": "ALR",
    "areaCode": "DA",
    "name": "DAR EL BEIDA VOR/DME"
  },
  {
    "lat": 36.832444444,
    "lon": 7.814583333,
    "elevation": 49,
    "frequency": 11350,
    "range": 130,
    "ident": "ANB",
    "areaCode": "DA",
    "name": "ANNABA VOR/DME"
  },
  {
    "lat": 31.072911111,
    "lon": 33.831783333,
    "elevation": 140,
    "frequency": 11360,
    "range": 130,
    "ident": "ARH",
    "areaCode": "HE",
    "name": "EL ARISH VOR/DME"
  },
  {
    "lat": 34.986783333,
    "lon": -3.029244444,
    "elevation": 602,
    "frequency": 11600,
    "range": 40,
    "ident": "ARI",
    "areaCode": "GM",
    "name": "NADOR VOR/DME"
  },
  {
    "lat": 16.974963889,
    "lon": 8.023230556,
    "elevation": 0,
    "frequency": 11350,
    "range": 130,
    "ident": "AS",
    "areaCode": "DR",
    "name": "AGADEZ VOR"
  },
  {
    "lat": -7.969875,
    "lon": -14.397336111,
    "elevation": 455,
    "frequency": 11220,
    "range": 130,
    "ident": "ASI",
    "areaCode": "FH",
    "name": "ASCENSION AUX VORTAC"
  },
  {
    "lat": 15.284447222,
    "lon": 38.900811111,
    "elevation": 7661,
    "frequency": 11370,
    "range": 130,
    "ident": "ASM",
    "areaCode": "HH",
    "name": "ASMARA VOR/DME"
  },
  {
    "lat": 23.971777778,
    "lon": 32.816944444,
    "elevation": 668,
    "frequency": 11230,
    "range": 130,
    "ident": "ASN",
    "areaCode": "HE",
    "name": "ASWAN VOR/DME"
  },
  {
    "lat": 27.031177778,
    "lon": 31.032338889,
    "elevation": 850,
    "frequency": 11770,
    "range": 130,
    "ident": "AST",
    "areaCode": "HE",
    "name": "ASYUT VOR/DME"
  },
  {
    "lat": 34.863305556,
    "lon": 9.16775,
    "elevation": 0,
    "frequency": 11530,
    "range": 130,
    "ident": "BAN",
    "areaCode": "DT",
    "name": "SIDI BEN AOUN VOR"
  },
  {
    "lat": 33.709805556,
    "lon": 1.079186111,
    "elevation": 4500,
    "frequency": 11480,
    "range": 130,
    "ident": "BAY",
    "areaCode": "DA",
    "name": "EL BAYADH VOR/DME"
  },
  {
    "lat": 30.023777778,
    "lon": -2.230638889,
    "elevation": 1740,
    "frequency": 11530,
    "range": 130,
    "ident": "BBS",
    "areaCode": "DA",
    "name": "BENI ABBES VOR/DME"
  },
  {
    "lat": 31.684591667,
    "lon": -2.261275,
    "elevation": 2661,
    "frequency": 11390,
    "range": 130,
    "ident": "BCR",
    "areaCode": "DA",
    "name": "BECHAR VOR/DME"
  },
  {
    "lat": 11.145027778,
    "lon": -4.350861111,
    "elevation": 1405,
    "frequency": 11470,
    "range": 130,
    "ident": "BD",
    "areaCode": "DF",
    "name": "BOBO-DIOULASSO VOR/DME"
  },
  {
    "lat": 9.102138889,
    "lon": 6.017527778,
    "elevation": 500,
    "frequency": 11270,
    "range": 40,
    "ident": "BDA",
    "areaCode": "DN",
    "name": "BIDA VOR/DME"
  },
  {
    "lat": 11.606419444,
    "lon": 37.317216667,
    "elevation": 5976,
    "frequency": 11440,
    "range": 130,
    "ident": "BDR",
    "areaCode": "HA",
    "name": "BAHIR DAR VOR/DME"
  },
  {
    "lat": 6.28365,
    "lon": 5.557955556,
    "elevation": 218,
    "frequency": 11650,
    "range": 130,
    "ident": "BEN",
    "areaCode": "DN",
    "name": "BENIN VOR/DME"
  },
  {
    "lat": 5.534969444,
    "lon": 10.354388889,
    "elevation": 26,
    "frequency": 11650,
    "range": 130,
    "ident": "BF",
    "areaCode": "FK",
    "name": "BAFOUSSAM VOR/DME"
  },
  {
    "lat": 32.157725,
    "lon": -7.880697222,
    "elevation": 1465,
    "frequency": 11540,
    "range": 130,
    "ident": "BGR",
    "areaCode": "GM",
    "name": "BENGUERIR VOR/DME"
  },
  {
    "lat": 12.490927778,
    "lon": 4.390122222,
    "elevation": 779,
    "frequency": 11220,
    "range": 130,
    "ident": "BIK",
    "areaCode": "DN",
    "name": "BIRNIN KEBBI VOR/DME"
  },
  {
    "lat": 34.77595,
    "lon": 5.763616667,
    "elevation": 289,
    "frequency": 11500,
    "range": 130,
    "ident": "BIS",
    "areaCode": "DA",
    "name": "BISKRA VOR/DME"
  },
  {
    "lat": 11.920638889,
    "lon": -15.644833333,
    "elevation": 118,
    "frequency": 11430,
    "range": 130,
    "ident": "BIS",
    "areaCode": "GG",
    "name": "BISSAU VOR/DME"
  },
  {
    "lat": 37.235277778,
    "lon": 9.765555556,
    "elevation": 12,
    "frequency": 11420,
    "range": 130,
    "ident": "BIZ",
    "areaCode": "DT",
    "name": "BIZERTE VOR/DME"
  },
  {
    "lat": 13.338133333,
    "lon": -16.6555,
    "elevation": 120,
    "frequency": 11290,
    "range": 130,
    "ident": "BJ",
    "areaCode": "GB",
    "name": "BANJUL VOR/DME"
  },
  {
    "lat": 36.714444444,
    "lon": 5.080527778,
    "elevation": 20,
    "frequency": 11300,
    "range": 130,
    "ident": "BJA",
    "areaCode": "DA",
    "name": "BEJAIA VOR/DME"
  },
  {
    "lat": -3.346338889,
    "lon": 29.322025,
    "elevation": 2605,
    "frequency": 11230,
    "range": 130,
    "ident": "BJA",
    "areaCode": "HB",
    "name": "BUJUMBURA VOR/DME"
  },
  {
    "lat": 12.546616667,
    "lon": -7.929716667,
    "elevation": 1253,
    "frequency": 11370,
    "range": 130,
    "ident": "BKO",
    "areaCode": "GA",
    "name": "BAMAKO VOR/DME"
  },
  {
    "lat": 7.747288889,
    "lon": -5.074941667,
    "elevation": 1231,
    "frequency": 11510,
    "range": 130,
    "ident": "BKY",
    "areaCode": "DI",
    "name": "BOUAKE VOR/DME"
  },
  {
    "lat": 4.250761111,
    "lon": 20.98,
    "elevation": 1499,
    "frequency": 11210,
    "range": 130,
    "ident": "BLT",
    "areaCode": "FZ",
    "name": "GBADOLITE VOR/DME"
  },
  {
    "lat": 31.528888889,
    "lon": 31.1225,
    "elevation": 10,
    "frequency": 11690,
    "range": 40,
    "ident": "BLT",
    "areaCode": "HE",
    "name": "BALTIM VOR/DME"
  },
  {
    "lat": -29.100661111,
    "lon": 26.300641667,
    "elevation": 4416,
    "frequency": 11410,
    "range": 130,
    "ident": "BLV",
    "areaCode": "FA",
    "name": "BLOEMFONTEIN VORTAC"
  },
  {
    "lat": 32.416875,
    "lon": -6.298022222,
    "elevation": 1739,
    "frequency": 11310,
    "range": 130,
    "ident": "BML",
    "areaCode": "GM",
    "name": "BENI MELLAL VOR/DME"
  },
  {
    "lat": 32.124444444,
    "lon": 20.253611111,
    "elevation": 349,
    "frequency": 11740,
    "range": 130,
    "ident": "BNA",
    "areaCode": "HL",
    "name": "BENINA (BENGHAZI) VOR/DME"
  },
  {
    "lat": 33.6418,
    "lon": -7.207997222,
    "elevation": 676,
    "frequency": 11745,
    "range": 130,
    "ident": "BNS",
    "areaCode": "GM",
    "name": "BENSLIMANE VOR/DME"
  },
  {
    "lat": 28.133047222,
    "lon": 6.839175,
    "elevation": 1207,
    "frequency": 11430,
    "range": 130,
    "ident": "BOD",
    "areaCode": "DA",
    "name": "BORDJ OMAR DRISS VOR/DME"
  },
  {
    "lat": -32.906311111,
    "lon": 27.269444444,
    "elevation": 2000,
    "frequency": 11240,
    "range": 130,
    "ident": "BOV",
    "areaCode": "FA",
    "name": "BHISHO VOR/DME"
  },
  {
    "lat": 33.278636111,
    "lon": -7.557330556,
    "elevation": 715,
    "frequency": 11400,
    "range": 40,
    "ident": "BRC",
    "areaCode": "GM",
    "name": "BARRECHID (CASABLANCA) VOR/DME"
  },
  {
    "lat": 32.514294444,
    "lon": -2.030477778,
    "elevation": 3650,
    "frequency": 11700,
    "range": 130,
    "ident": "BRF",
    "areaCode": "GM",
    "name": "BOUARFA VOR/DME"
  },
  {
    "lat": 31.575555556,
    "lon": 26.005555556,
    "elevation": 120,
    "frequency": 11620,
    "range": 130,
    "ident": "BRN",
    "areaCode": "HE",
    "name": "SIDI BARRANI VOR/DME"
  },
  {
    "lat": 8.128263889,
    "lon": 34.561397222,
    "elevation": 1772,
    "frequency": 11450,
    "range": 130,
    "ident": "BRO",
    "areaCode": "HA",
    "name": "GAMBELLA VOR/DME"
  },
  {
    "lat": 35.332138889,
    "lon": 4.208388889,
    "elevation": 1506,
    "frequency": 11590,
    "range": 130,
    "ident": "BSA",
    "areaCode": "DA",
    "name": "BOU SAADA VOR/DME"
  },
  {
    "lat": 4.229361111,
    "lon": 15.783833333,
    "elevation": 0,
    "frequency": 11390,
    "range": 130,
    "ident": "BT",
    "areaCode": "FE",
    "name": "BERBERATI VOR"
  },
  {
    "lat": 1.902463889,
    "lon": 9.808919444,
    "elevation": 30,
    "frequency": 11540,
    "range": 130,
    "ident": "BTA",
    "areaCode": "FG",
    "name": "BATA VOR/DME"
  },
  {
    "lat": 35.771527778,
    "lon": 6.343794444,
    "elevation": 2700,
    "frequency": 11570,
    "range": 130,
    "ident": "BTN",
    "areaCode": "DA",
    "name": "BATNA VOR/DME"
  },
  {
    "lat": 1.566283333,
    "lon": 30.223713889,
    "elevation": 0,
    "frequency": 11400,
    "range": 40,
    "ident": "BUN",
    "areaCode": "FZ",
    "name": "BUNIA VOR"
  },
  {
    "lat": 2.818333333,
    "lon": 24.81,
    "elevation": 0,
    "frequency": 11690,
    "range": 40,
    "ident": "BUT",
    "areaCode": "FZ",
    "name": "BUTA-ZEGA VOR"
  },
  {
    "lat": -4.245611111,
    "lon": 15.263805556,
    "elevation": 1061,
    "frequency": 11310,
    "range": 130,
    "ident": "BZ",
    "areaCode": "FC",
    "name": "BRAZZAVILLE VOR/DME"
  },
  {
    "lat": 30.152,
    "lon": 31.423888889,
    "elevation": 180,
    "frequency": 11250,
    "range": 130,
    "ident": "CAI",
    "areaCode": "HE",
    "name": "CAIRO VOR/DME"
  },
  {
    "lat": 4.921875,
    "lon": 8.32005,
    "elevation": 46,
    "frequency": 11410,
    "range": 130,
    "ident": "CAL",
    "areaCode": "DN",
    "name": "CALABAR VOR/DME"
  },
  {
    "lat": 33.521497222,
    "lon": -7.677186111,
    "elevation": 365,
    "frequency": 11690,
    "range": 130,
    "ident": "CBA",
    "areaCode": "GM",
    "name": "ANFA (CASABLANCA) VOR/DME"
  },
  {
    "lat": 36.895555556,
    "lon": 11.088333333,
    "elevation": 0,
    "frequency": 11270,
    "range": 130,
    "ident": "CBN",
    "areaCode": "DT",
    "name": "CAP BON VOR"
  },
  {
    "lat": -34.112966667,
    "lon": 19.477886111,
    "elevation": 0,
    "frequency": 11490,
    "range": 130,
    "ident": "CDV",
    "areaCode": "FA",
    "name": "CALEDON VOR"
  },
  {
    "lat": -0.0215,
    "lon": 15.579166667,
    "elevation": 1300,
    "frequency": 11250,
    "range": 130,
    "ident": "CF",
    "areaCode": "FC",
    "name": "MAKOUA VOR/DME"
  },
  {
    "lat": 36.213416667,
    "lon": 1.322194444,
    "elevation": 535,
    "frequency": 11700,
    "range": 130,
    "ident": "CLF",
    "areaCode": "DA",
    "name": "CHLEF VOR/DME"
  },
  {
    "lat": 36.293263889,
    "lon": 6.608322222,
    "elevation": 2303,
    "frequency": 11550,
    "range": 130,
    "ident": "CSO",
    "areaCode": "DA",
    "name": "CONSTANTINE VOR/DME"
  },
  {
    "lat": -33.252297222,
    "lon": 19.438116667,
    "elevation": 5000,
    "frequency": 11420,
    "range": 130,
    "ident": "CSV",
    "areaCode": "FA",
    "name": "CERES VOR/DME"
  },
  {
    "lat": -33.969672222,
    "lon": 18.605052778,
    "elevation": 146,
    "frequency": 11570,
    "range": 130,
    "ident": "CTV",
    "areaCode": "FA",
    "name": "CAPE TOWN VOR/DME"
  },
  {
    "lat": 30.092272222,
    "lon": 31.388383333,
    "elevation": 460,
    "frequency": 11520,
    "range": 130,
    "ident": "CVO",
    "areaCode": "HE",
    "name": "CAIRO VOR/DME"
  },
  {
    "lat": 16.736672222,
    "lon": -22.95085,
    "elevation": 214,
    "frequency": 11530,
    "range": 130,
    "ident": "CVS",
    "areaCode": "GV",
    "name": "SAL VOR/DME"
  },
  {
    "lat": 31.011388889,
    "lon": 28.466944444,
    "elevation": 110,
    "frequency": 11570,
    "range": 130,
    "ident": "DBA",
    "areaCode": "HE",
    "name": "EL DABA VOR/DME"
  },
  {
    "lat": 29.467427778,
    "lon": 17.931602778,
    "elevation": 1086,
    "frequency": 11610,
    "range": 130,
    "ident": "DHR",
    "areaCode": "HL",
    "name": "DAHRA VOR/DME"
  },
  {
    "lat": 18.981472222,
    "lon": 12.8805,
    "elevation": 0,
    "frequency": 11390,
    "range": 40,
    "ident": "DIR",
    "areaCode": "DR",
    "name": "DIRKOU VOR"
  },
  {
    "lat": 24.287727778,
    "lon": 9.453341667,
    "elevation": 3176,
    "frequency": 11410,
    "range": 130,
    "ident": "DJA",
    "areaCode": "DA",
    "name": "DJANET VOR/DME"
  },
  {
    "lat": 23.744844444,
    "lon": -15.919838889,
    "elevation": 56,
    "frequency": 11580,
    "range": 130,
    "ident": "DKH",
    "areaCode": "GM",
    "name": "DAKHLA VOR/DME"
  },
  {
    "lat": 3.993916667,
    "lon": 9.743472222,
    "elevation": 26,
    "frequency": 11290,
    "range": 130,
    "ident": "DLA",
    "areaCode": "FK",
    "name": "DOUALA VOR/DME"
  },
  {
    "lat": 19.182572222,
    "lon": 30.427283333,
    "elevation": 802,
    "frequency": 11230,
    "range": 40,
    "ident": "DOG",
    "areaCode": "HS",
    "name": "DONGOLA VOR/DME"
  },
  {
    "lat": -25.655916667,
    "lon": 28.220075,
    "elevation": 4089,
    "frequency": 11220,
    "range": 130,
    "ident": "DPV",
    "areaCode": "FA",
    "name": "WONDERBOOM VOR/DME"
  },
  {
    "lat": 11.548516667,
    "lon": 43.093533333,
    "elevation": 500,
    "frequency": 11390,
    "range": 130,
    "ident": "DTI",
    "areaCode": "HD",
    "name": "DJIBOUTI VOR/DME"
  },
  {
    "lat": 11.806905556,
    "lon": 9.320783333,
    "elevation": 1355,
    "frequency": 11690,
    "range": 130,
    "ident": "DUT",
    "areaCode": "DN",
    "name": "DUTSE VOR/DME"
  },
  {
    "lat": -6.888005556,
    "lon": 39.192713889,
    "elevation": 230,
    "frequency": 11270,
    "range": 40,
    "ident": "DV",
    "areaCode": "HT",
    "name": "DAR-ES-SALAAM VOR/DME"
  },
  {
    "lat": -13.811111111,
    "lon": 33.807777778,
    "elevation": 4101,
    "frequency": 11490,
    "range": 130,
    "ident": "DVL",
    "areaCode": "FW",
    "name": "LILONGWE VOR/DME"
  },
  {
    "lat": 9.643619444,
    "lon": 41.844322222,
    "elevation": 3661,
    "frequency": 11770,
    "range": 130,
    "ident": "DWA",
    "areaCode": "HA",
    "name": "DIRE DAWA VOR/DME"
  },
  {
    "lat": -12.811,
    "lon": 45.280861111,
    "elevation": 42,
    "frequency": 11350,
    "range": 130,
    "ident": "DZP",
    "areaCode": "FM",
    "name": "DZAOUDZI VOR/DME"
  },
  {
    "lat": 31.705861111,
    "lon": 9.254666667,
    "elevation": 0,
    "frequency": 11380,
    "range": 130,
    "ident": "EBA",
    "areaCode": "DT",
    "name": "EL BORMA VOR"
  },
  {
    "lat": 0.406655556,
    "lon": 35.231061111,
    "elevation": 6850,
    "frequency": 11470,
    "range": 130,
    "ident": "ELD",
    "areaCode": "HK",
    "name": "ELDORET VOR/DME"
  },
  {
    "lat": 33.510455556,
    "lon": 6.780613889,
    "elevation": 203,
    "frequency": 11760,
    "range": 130,
    "ident": "ELO",
    "areaCode": "DA",
    "name": "EL OUED VOR/DME"
  },
  {
    "lat": -33.036988889,
    "lon": 27.823155556,
    "elevation": 406,
    "frequency": 11450,
    "range": 130,
    "ident": "ELV",
    "areaCode": "FA",
    "name": "EAST LONDON VOR/DME"
  },
  {
    "lat": 6.480880556,
    "lon": 7.601222222,
    "elevation": 453,
    "frequency": 11570,
    "range": 40,
    "ident": "ENG",
    "areaCode": "DN",
    "name": "ENUGU VOR/DME"
  },
  {
    "lat": 31.924166667,
    "lon": -4.360527778,
    "elevation": 3445,
    "frequency": 11710,
    "range": 40,
    "ident": "ERA",
    "areaCode": "GM",
    "name": "ERRACHIDIA VOR/DME"
  },
  {
    "lat": -23.625219444,
    "lon": 27.964361111,
    "elevation": 3790,
    "frequency": 11630,
    "range": 130,
    "ident": "ERV",
    "areaCode": "FA",
    "name": "ELLISRAS VOR/DME"
  },
  {
    "lat": 31.401244444,
    "lon": -9.686958333,
    "elevation": 394,
    "frequency": 11270,
    "range": 130,
    "ident": "ESS",
    "areaCode": "GM",
    "name": "ESSAOUIRA VOR/DME"
  },
  {
    "lat": 33.927416667,
    "lon": -5.013583333,
    "elevation": 1873,
    "frequency": 11570,
    "range": 130,
    "ident": "FES",
    "areaCode": "GM",
    "name": "FES VOR/DME"
  },
  {
    "lat": 12.141694444,
    "lon": 15.038305556,
    "elevation": 988,
    "frequency": 11530,
    "range": 130,
    "ident": "FL",
    "areaCode": "FT",
    "name": "N'DJAMENA VOR/DME"
  },
  {
    "lat": -21.135144444,
    "lon": 27.425972222,
    "elevation": 3283,
    "frequency": 11300,
    "range": 130,
    "ident": "FNV",
    "areaCode": "FB",
    "name": "FRANCISTOWN VOR/DME"
  },
  {
    "lat": 10.051055556,
    "lon": -10.760166667,
    "elevation": 0,
    "frequency": 11210,
    "range": 40,
    "ident": "FRH",
    "areaCode": "GU",
    "name": "FARANAH VOR"
  },
  {
    "lat": -1.653083333,
    "lon": 13.443916667,
    "elevation": 1578,
    "frequency": 11610,
    "range": 130,
    "ident": "FRV",
    "areaCode": "FO",
    "name": "FRANCEVILLE VOR/DME"
  },
  {
    "lat": 13.610311111,
    "lon": 25.329277778,
    "elevation": 2412,
    "frequency": 11500,
    "range": 130,
    "ident": "FSR",
    "areaCode": "HS",
    "name": "EL FASHIR VOR/DME"
  },
  {
    "lat": 28.430777778,
    "lon": -13.8645,
    "elevation": 1,
    "frequency": 11410,
    "range": 130,
    "ident": "FTV",
    "areaCode": "GC",
    "name": "FUERTEVENTURA VOR/DME"
  },
  {
    "lat": 17.930833333,
    "lon": 19.134166667,
    "elevation": 785,
    "frequency": 11470,
    "range": 130,
    "ident": "FY",
    "areaCode": "FT",
    "name": "FAYA-LARGEAU VOR/DME"
  },
  {
    "lat": 29.3975,
    "lon": 30.393055556,
    "elevation": 50,
    "frequency": 11730,
    "range": 130,
    "ident": "FYM",
    "areaCode": "HE",
    "name": "FAYOUM VOR/DME"
  },
  {
    "lat": 33.732194444,
    "lon": 9.920194444,
    "elevation": 413,
    "frequency": 11540,
    "range": 130,
    "ident": "GAB",
    "areaCode": "DT",
    "name": "GABES VOR/DME"
  },
  {
    "lat": 30.163611111,
    "lon": 9.741388889,
    "elevation": 1110,
    "frequency": 11580,
    "range": 130,
    "ident": "GAD",
    "areaCode": "HL",
    "name": "GHADAMES VOR/DME"
  },
  {
    "lat": 34.4205,
    "lon": 8.824166667,
    "elevation": 1066,
    "frequency": 10900,
    "range": 130,
    "ident": "GAF",
    "areaCode": "DT",
    "name": "GAFSA VOR/DME"
  },
  {
    "lat": 16.237861111,
    "lon": -0.0265,
    "elevation": 0,
    "frequency": 11230,
    "range": 40,
    "ident": "GAO",
    "areaCode": "GA",
    "name": "GAO VOR"
  },
  {
    "lat": -0.472405556,
    "lon": 39.6509,
    "elevation": 475,
    "frequency": 11570,
    "range": 130,
    "ident": "GAR",
    "areaCode": "HK",
    "name": "GARISSA VOR/DME"
  },
  {
    "lat": -26.514897222,
    "lon": 27.676436111,
    "elevation": 0,
    "frequency": 11550,
    "range": 130,
    "ident": "GAV",
    "areaCode": "FA",
    "name": "GRASMERE VOR"
  },
  {
    "lat": 7.250277778,
    "lon": 9.002222222,
    "elevation": 500,
    "frequency": 11590,
    "range": 40,
    "ident": "GB",
    "areaCode": "DN",
    "name": "GBOKO VOR/DME"
  },
  {
    "lat": -24.597713889,
    "lon": 25.832455556,
    "elevation": 3400,
    "frequency": 11370,
    "range": 40,
    "ident": "GBV",
    "areaCode": "FB",
    "name": "GABORONE VOR/DME"
  },
  {
    "lat": -20.014722222,
    "lon": 57.601333333,
    "elevation": 100,
    "frequency": 11480,
    "range": 40,
    "ident": "GBY",
    "areaCode": "FI",
    "name": "GRAND BAY (MAURITIUS) VOR/DME"
  },
  {
    "lat": 28.077083333,
    "lon": -15.429,
    "elevation": 787,
    "frequency": 11290,
    "range": 130,
    "ident": "GDV",
    "areaCode": "GC",
    "name": "GRAN CANARIA VOR/DME"
  },
  {
    "lat": -19.602777778,
    "lon": 18.121388889,
    "elevation": 0,
    "frequency": 11570,
    "range": 40,
    "ident": "GFV",
    "areaCode": "FY",
    "name": "GROOTFONTEIN VOR"
  },
  {
    "lat": 32.393286111,
    "lon": 3.777880556,
    "elevation": 1581,
    "frequency": 11490,
    "range": 130,
    "ident": "GHA",
    "areaCode": "DA",
    "name": "NOUMERAT (GHARDAIA) VOR/DME"
  },
  {
    "lat": 25.146883333,
    "lon": 10.138916667,
    "elevation": 2296,
    "frequency": 11480,
    "range": 130,
    "ident": "GHT",
    "areaCode": "HL",
    "name": "GHAT VOR/DME"
  },
  {
    "lat": 9.567966667,
    "lon": -13.619669444,
    "elevation": 90,
    "frequency": 11490,
    "range": 130,
    "ident": "GIA",
    "areaCode": "GU",
    "name": "GBESSIA (CONAKRY) VOR/DME"
  },
  {
    "lat": 29.010469444,
    "lon": -10.069297222,
    "elevation": 1038,
    "frequency": 11430,
    "range": 40,
    "ident": "GLM",
    "areaCode": "GM",
    "name": "GUELMIME VOR/DME"
  },
  {
    "lat": 10.280230556,
    "lon": 10.87525,
    "elevation": 1555,
    "frequency": 11210,
    "range": 130,
    "ident": "GME",
    "areaCode": "DN",
    "name": "GOMBE VOR/DME"
  },
  {
    "lat": 13.472758333,
    "lon": 22.534805556,
    "elevation": 2707,
    "frequency": 11630,
    "range": 130,
    "ident": "GNA",
    "areaCode": "HS",
    "name": "EL GENIENA VOR/DME"
  },
  {
    "lat": -1.678605556,
    "lon": 29.240513889,
    "elevation": 5085,
    "frequency": 11650,
    "range": 130,
    "ident": "GOM",
    "areaCode": "FZ",
    "name": "GOMA VOR/DME"
  },
  {
    "lat": 35.209372222,
    "lon": 0.148913889,
    "elevation": 0,
    "frequency": 11310,
    "range": 130,
    "ident": "GRS",
    "areaCode": "DA",
    "name": "GHRISS VOR"
  },
  {
    "lat": -34.00735,
    "lon": 22.375961111,
    "elevation": 659,
    "frequency": 11660,
    "range": 130,
    "ident": "GRV",
    "areaCode": "FA",
    "name": "GEORGE VOR/DME"
  },
  {
    "lat": -24.551111111,
    "lon": 25.921666667,
    "elevation": 3287,
    "frequency": 11400,
    "range": 130,
    "ident": "GSV",
    "areaCode": "FB",
    "name": "GABORONE VOR/DME"
  },
  {
    "lat": -1.396591667,
    "lon": 36.637941667,
    "elevation": 0,
    "frequency": 11590,
    "range": 130,
    "ident": "GV",
    "areaCode": "HK",
    "name": "NGONG VOR"
  },
  {
    "lat": -22.245722222,
    "lon": 29.410336111,
    "elevation": 0,
    "frequency": 11790,
    "range": 130,
    "ident": "GWV",
    "areaCode": "FA",
    "name": "GREEFSWALD VOR"
  },
  {
    "lat": 9.106202778,
    "lon": 38.769919444,
    "elevation": 10160,
    "frequency": 11590,
    "range": 130,
    "ident": "GWZ",
    "areaCode": "HA",
    "name": "GAWASA VOR/DME"
  },
  {
    "lat": -29.124719444,
    "lon": 30.585569444,
    "elevation": 3700,
    "frequency": 11350,
    "range": 130,
    "ident": "GYV",
    "areaCode": "FA",
    "name": "GREYTOWN VOR/DME"
  },
  {
    "lat": -11.515008333,
    "lon": 43.276691667,
    "elevation": 103,
    "frequency": 11470,
    "range": 40,
    "ident": "HAI",
    "areaCode": "FM",
    "name": "MORONI VOR/DME"
  },
  {
    "lat": 36.689722222,
    "lon": 3.287777778,
    "elevation": 0,
    "frequency": 11705,
    "range": 40,
    "ident": "HBM",
    "areaCode": "DA",
    "name": "ALGIERS VOR"
  },
  {
    "lat": 27.17775,
    "lon": 33.796388889,
    "elevation": 70,
    "frequency": 11650,
    "range": 40,
    "ident": "HGD",
    "areaCode": "HE",
    "name": "HURGHADA VOR/DME"
  },
  {
    "lat": -26.696805556,
    "lon": 28.283163889,
    "elevation": 0,
    "frequency": 11670,
    "range": 130,
    "ident": "HGV",
    "areaCode": "FA",
    "name": "HEIDELBERG VOR"
  },
  {
    "lat": 31.691361111,
    "lon": 6.141916667,
    "elevation": 463,
    "frequency": 11470,
    "range": 130,
    "ident": "HME",
    "areaCode": "DA",
    "name": "HASSI MESSAOUD VOR/DME"
  },
  {
    "lat": -31.605883333,
    "lon": 25.844,
    "elevation": 4800,
    "frequency": 11340,
    "range": 130,
    "ident": "HMV",
    "areaCode": "FA",
    "name": "HOFMEYER VOR/DME"
  },
  {
    "lat": 32.937222222,
    "lon": 3.356666667,
    "elevation": 2500,
    "frequency": 11540,
    "range": 130,
    "ident": "HRM",
    "areaCode": "DA",
    "name": "HASSI R'MEL VOR/DME"
  },
  {
    "lat": -24.347202778,
    "lon": 31.047608333,
    "elevation": 1664,
    "frequency": 11400,
    "range": 130,
    "ident": "HSV",
    "areaCode": "FA",
    "name": "HOEDSPRUIT VORTAC"
  },
  {
    "lat": 6.526,
    "lon": 21.989194444,
    "elevation": 0,
    "frequency": 11350,
    "range": 130,
    "ident": "IA",
    "areaCode": "FE",
    "name": "BRIA VOR"
  },
  {
    "lat": 7.347430556,
    "lon": 3.965691667,
    "elevation": 748,
    "frequency": 11210,
    "range": 130,
    "ident": "IBA",
    "areaCode": "DN",
    "name": "IBADAN VOR/DME"
  },
  {
    "lat": 19.563611111,
    "lon": 5.733888889,
    "elevation": 0,
    "frequency": 11340,
    "range": 130,
    "ident": "IGZ",
    "areaCode": "DA",
    "name": "IN GUEZZAM VOR"
  },
  {
    "lat": 8.388366667,
    "lon": 4.430869444,
    "elevation": 1266,
    "frequency": 11230,
    "range": 130,
    "ident": "ILR",
    "areaCode": "DN",
    "name": "ILORIN VOR/DME"
  },
  {
    "lat": 26.72005,
    "lon": 8.635772222,
    "elevation": 1778,
    "frequency": 11560,
    "range": 130,
    "ident": "ILZ",
    "areaCode": "DA",
    "name": "ILLIZI VOR/DME"
  },
  {
    "lat": 28.066555556,
    "lon": 9.660916667,
    "elevation": 1870,
    "frequency": 11290,
    "range": 130,
    "ident": "IMN",
    "areaCode": "DA",
    "name": "ZARZAITINE VOR/DME"
  },
  {
    "lat": 2.813333333,
    "lon": 27.601666667,
    "elevation": 2438,
    "frequency": 11670,
    "range": 40,
    "ident": "IRO",
    "areaCode": "FZ",
    "name": "ISIRO-MATARI VOR/DME"
  },
  {
    "lat": -4.823083333,
    "lon": 11.887444444,
    "elevation": 100,
    "frequency": 11410,
    "range": 130,
    "ident": "IT",
    "areaCode": "FC",
    "name": "POINTE NOIRE VOR/DME"
  },
  {
    "lat": 31.452633333,
    "lon": 13.010452778,
    "elevation": 1910,
    "frequency": 11650,
    "range": 130,
    "ident": "IZD",
    "areaCode": "HL",
    "name": "MIZDA VOR/DME"
  },
  {
    "lat": 33.877222222,
    "lon": 10.771611111,
    "elevation": 33,
    "frequency": 11220,
    "range": 130,
    "ident": "JBA",
    "areaCode": "DT",
    "name": "DJERBA VOR/DME"
  },
  {
    "lat": 36.797583333,
    "lon": 5.875472222,
    "elevation": 56,
    "frequency": 11790,
    "range": 130,
    "ident": "JIL",
    "areaCode": "DA",
    "name": "JIJEL VOR/DME"
  },
  {
    "lat": 9.641972222,
    "lon": 8.864011111,
    "elevation": 4262,
    "frequency": 11310,
    "range": 130,
    "ident": "JOS",
    "areaCode": "DN",
    "name": "JOS VOR/DME"
  },
  {
    "lat": -26.157119444,
    "lon": 28.231027778,
    "elevation": 5579,
    "frequency": 11520,
    "range": 130,
    "ident": "JSV",
    "areaCode": "FA",
    "name": "JOHANNESBURG VOR/DME"
  },
  {
    "lat": 4.888658333,
    "lon": 31.5815,
    "elevation": 1509,
    "frequency": 11330,
    "range": 130,
    "ident": "JUB",
    "areaCode": "HS",
    "name": "JUBA VOR/DME"
  },
  {
    "lat": 29.212777778,
    "lon": 15.9875,
    "elevation": 0,
    "frequency": 11390,
    "range": 40,
    "ident": "JUF",
    "areaCode": "HL",
    "name": "JUFRA VOR"
  },
  {
    "lat": 12.035872222,
    "lon": 8.496063889,
    "elevation": 1588,
    "frequency": 11250,
    "range": 130,
    "ident": "KAN",
    "areaCode": "DN",
    "name": "KANO VOR/DME"
  },
  {
    "lat": 13.031625,
    "lon": 7.685247222,
    "elevation": 1660,
    "frequency": 11370,
    "range": 130,
    "ident": "KAT",
    "areaCode": "DN",
    "name": "KATSINA VOR/DME"
  },
  {
    "lat": 14.479083333,
    "lon": -11.42175,
    "elevation": 190,
    "frequency": 11670,
    "range": 130,
    "ident": "KAY",
    "areaCode": "GA",
    "name": "KAYES VOR/DME"
  },
  {
    "lat": 10.680177778,
    "lon": 7.301425,
    "elevation": 2034,
    "frequency": 11530,
    "range": 130,
    "ident": "KDA",
    "areaCode": "DN",
    "name": "KADUNA VOR/DME"
  },
  {
    "lat": 24.1539,
    "lon": 23.307816667,
    "elevation": 1376,
    "frequency": 11320,
    "range": 130,
    "ident": "KFR",
    "areaCode": "HL",
    "name": "KUFRA VOR/DME"
  },
  {
    "lat": 0.495,
    "lon": 25.313333333,
    "elevation": 1450,
    "frequency": 11450,
    "range": 130,
    "ident": "KGI",
    "areaCode": "FZ",
    "name": "KISANGANI VOR/DME"
  },
  {
    "lat": -23.679713889,
    "lon": 22.819886111,
    "elevation": 0,
    "frequency": 11510,
    "range": 40,
    "ident": "KGV",
    "areaCode": "FB",
    "name": "KANG VOR"
  },
  {
    "lat": 25.448388889,
    "lon": 30.590805556,
    "elevation": 137,
    "frequency": 11380,
    "range": 40,
    "ident": "KHG",
    "areaCode": "HE",
    "name": "EL KHARGA VOR/DME"
  },
  {
    "lat": -2.916666667,
    "lon": 25.9,
    "elevation": 1655,
    "frequency": 11510,
    "range": 40,
    "ident": "KIN",
    "areaCode": "FZ",
    "name": "KINDU VOR/DME"
  },
  {
    "lat": 9.091452778,
    "lon": 3.829630556,
    "elevation": 1000,
    "frequency": 11430,
    "range": 130,
    "ident": "KIS",
    "areaCode": "DN",
    "name": "KISHI VOR/DME"
  },
  {
    "lat": -5.937222222,
    "lon": 12.426944444,
    "elevation": 0,
    "frequency": 11530,
    "range": 40,
    "ident": "KIT",
    "areaCode": "FZ",
    "name": "KITONA BASE VOR"
  },
  {
    "lat": -0.091877778,
    "lon": 34.723277778,
    "elevation": 3764,
    "frequency": 11410,
    "range": 130,
    "ident": "KIV",
    "areaCode": "HK",
    "name": "KISUMU VOR/DME"
  },
  {
    "lat": -8.626666667,
    "lon": 25.248333333,
    "elevation": 0,
    "frequency": 11470,
    "range": 130,
    "ident": "KMB",
    "areaCode": "FZ",
    "name": "KAMINA BASE VOR"
  },
  {
    "lat": -5.866666667,
    "lon": 29.25,
    "elevation": 0,
    "frequency": 11630,
    "range": 40,
    "ident": "KMI",
    "areaCode": "FZ",
    "name": "KALEMIE VOR"
  },
  {
    "lat": 13.027977778,
    "lon": 32.906441667,
    "elevation": 1303,
    "frequency": 11540,
    "range": 130,
    "ident": "KNA",
    "areaCode": "HS",
    "name": "KENANA VOR/DME"
  },
  {
    "lat": -1.968563889,
    "lon": 30.147558333,
    "elevation": 4892,
    "frequency": 11490,
    "range": 130,
    "ident": "KNM",
    "areaCode": "HR",
    "name": "KIGALI VOR/DME"
  },
  {
    "lat": 9.372480556,
    "lon": -5.6443,
    "elevation": 1260,
    "frequency": 11520,
    "range": 130,
    "ident": "KRG",
    "areaCode": "DI",
    "name": "KORHOGO VOR/DME"
  },
  {
    "lat": -4.402430556,
    "lon": 15.418547222,
    "elevation": 1079,
    "frequency": 11500,
    "range": 130,
    "ident": "KSA",
    "areaCode": "FZ",
    "name": "KINSHASA VOR/DME"
  },
  {
    "lat": 6.708563889,
    "lon": -1.590652778,
    "elevation": 963,
    "frequency": 11390,
    "range": 130,
    "ident": "KSI",
    "areaCode": "DG",
    "name": "KUMASI VOR/DME"
  },
  {
    "lat": 15.407638889,
    "lon": 36.337222222,
    "elevation": 1661,
    "frequency": 11480,
    "range": 130,
    "ident": "KSL",
    "areaCode": "HS",
    "name": "KASSALA VOR/DME"
  },
  {
    "lat": -17.832744444,
    "lon": 25.169863889,
    "elevation": 3269,
    "frequency": 11330,
    "range": 130,
    "ident": "KSV",
    "areaCode": "FB",
    "name": "KASANE VOR/DME"
  },
  {
    "lat": 15.566083333,
    "lon": 32.553388889,
    "elevation": 1258,
    "frequency": 11210,
    "range": 130,
    "ident": "KTM",
    "areaCode": "HS",
    "name": "KHARTOUM VOR/DME"
  },
  {
    "lat": -26.5375,
    "lon": 18.113611111,
    "elevation": 3524,
    "frequency": 11290,
    "range": 130,
    "ident": "KTV",
    "areaCode": "FY",
    "name": "KEETMANSHOOP VOR/DME"
  },
  {
    "lat": 10.596055556,
    "lon": 7.447472222,
    "elevation": 0,
    "frequency": 11470,
    "range": 130,
    "ident": "KUA",
    "areaCode": "DN",
    "name": "KADUNA VOR"
  },
  {
    "lat": -3.427880556,
    "lon": 37.106611111,
    "elevation": 2976,
    "frequency": 11530,
    "range": 130,
    "ident": "KV",
    "areaCode": "HT",
    "name": "KILIMANJARO VOR/DME"
  },
  {
    "lat": -28.79995,
    "lon": 24.760366667,
    "elevation": 3934,
    "frequency": 11320,
    "range": 40,
    "ident": "KYV",
    "areaCode": "FA",
    "name": "KIMBERLEY VOR/DME"
  },
  {
    "lat": 6.708516667,
    "lon": 3.327452778,
    "elevation": 217,
    "frequency": 11370,
    "range": 130,
    "ident": "LAG",
    "areaCode": "DN",
    "name": "LAGOS VOR/DME"
  },
  {
    "lat": 27.14285,
    "lon": -13.217952778,
    "elevation": 223,
    "frequency": 11210,
    "range": 130,
    "ident": "LAY",
    "areaCode": "GM",
    "name": "LAAYOUNE VOR/DME"
  },
  {
    "lat": 8.397111111,
    "lon": 20.685944444,
    "elevation": 0,
    "frequency": 11310,
    "range": 130,
    "ident": "LE",
    "areaCode": "FE",
    "name": "N'DELE VOR"
  },
  {
    "lat": 8.617177778,
    "lon": -13.191366667,
    "elevation": 84,
    "frequency": 11550,
    "range": 130,
    "ident": "LGI",
    "areaCode": "GF",
    "name": "LUNGI (FREETOWN) VOR/DME"
  },
  {
    "lat": 28.02875,
    "lon": -17.214888889,
    "elevation": 787,
    "frequency": 11600,
    "range": 40,
    "ident": "LGM",
    "areaCode": "GC",
    "name": "LA GOMERA VOR/DME"
  },
  {
    "lat": -25.948927778,
    "lon": 27.913572222,
    "elevation": 4570,
    "frequency": 11740,
    "range": 130,
    "ident": "LIV",
    "areaCode": "FA",
    "name": "LANSERIA VOR/DME"
  },
  {
    "lat": -3.416666667,
    "lon": 23.45,
    "elevation": 0,
    "frequency": 11550,
    "range": 40,
    "ident": "LJA",
    "areaCode": "FZ",
    "name": "LODJA VOR"
  },
  {
    "lat": 6.184083333,
    "lon": 1.268777778,
    "elevation": 89,
    "frequency": 11530,
    "range": 40,
    "ident": "LM",
    "areaCode": "DX",
    "name": "LOME VOR/DME"
  },
  {
    "lat": 3.1075,
    "lon": 35.612738889,
    "elevation": 1715,
    "frequency": 11430,
    "range": 130,
    "ident": "LOV",
    "areaCode": "HK",
    "name": "LODWAR VOR/DME"
  },
  {
    "lat": 27.828527778,
    "lon": -15.43225,
    "elevation": 197,
    "frequency": 11500,
    "range": 130,
    "ident": "LPC",
    "areaCode": "GC",
    "name": "GRAN CANARIA SOUTH VOR/DME"
  },
  {
    "lat": 28.484916667,
    "lon": -16.351555556,
    "elevation": 2067,
    "frequency": 11620,
    "range": 40,
    "ident": "LRO",
    "areaCode": "GC",
    "name": "TENERIFE-LOS RODEOS VOR/DME"
  },
  {
    "lat": 28.948194444,
    "lon": -13.601333333,
    "elevation": 98,
    "frequency": 11440,
    "range": 130,
    "ident": "LTE",
    "areaCode": "GC",
    "name": "LANZAROTE AEROPUERTO VOR/DME"
  },
  {
    "lat": -23.158486111,
    "lon": 29.686438889,
    "elevation": 3046,
    "frequency": 11500,
    "range": 130,
    "ident": "LTV",
    "areaCode": "FA",
    "name": "MAKHADO VORTAC"
  },
  {
    "lat": -11.602180556,
    "lon": 27.505644444,
    "elevation": 4314,
    "frequency": 11670,
    "range": 40,
    "ident": "LUB",
    "areaCode": "FZ",
    "name": "LUBUMBASHI VOR/DME"
  },
  {
    "lat": 0.479833333,
    "lon": 9.401972222,
    "elevation": 59,
    "frequency": 11210,
    "range": 130,
    "ident": "LV",
    "areaCode": "FO",
    "name": "LIBREVILLE VOR/DME"
  },
  {
    "lat": -32.982855556,
    "lon": 18.163872222,
    "elevation": 106,
    "frequency": 11700,
    "range": 130,
    "ident": "LWV",
    "areaCode": "FA",
    "name": "LANGEBAANWEG VORTAC"
  },
  {
    "lat": 25.749444444,
    "lon": 32.768611111,
    "elevation": 332,
    "frequency": 11440,
    "range": 40,
    "ident": "LXR",
    "areaCode": "HE",
    "name": "LUXOR VOR/DME"
  },
  {
    "lat": -28.604502778,
    "lon": 29.694533333,
    "elevation": 3825,
    "frequency": 11650,
    "range": 130,
    "ident": "LYV",
    "areaCode": "FA",
    "name": "LADYSMITH VOR/DME"
  },
  {
    "lat": 29.166,
    "lon": -13.510694444,
    "elevation": 1772,
    "frequency": 11520,
    "range": 130,
    "ident": "LZR",
    "areaCode": "GC",
    "name": "LANZAROTE VOR/DME"
  },
  {
    "lat": 31.61275,
    "lon": -8.103027778,
    "elevation": 1470,
    "frequency": 11330,
    "range": 130,
    "ident": "MAK",
    "areaCode": "GM",
    "name": "MARRAKECH VOR/DME"
  },
  {
    "lat": 25.583055556,
    "lon": 34.567222222,
    "elevation": 265,
    "frequency": 11550,
    "range": 40,
    "ident": "MAK",
    "areaCode": "HE",
    "name": "MARSA ALAM VOR/DME"
  },
  {
    "lat": 7.288530556,
    "lon": -7.579425,
    "elevation": 1090,
    "frequency": 11620,
    "range": 130,
    "ident": "MAN",
    "areaCode": "DI",
    "name": "MAN VOR/DME"
  },
  {
    "lat": 3.940325,
    "lon": 41.864180556,
    "elevation": 805,
    "frequency": 11370,
    "range": 130,
    "ident": "MAV",
    "areaCode": "HK",
    "name": "MANDERA VOR/DME"
  },
  {
    "lat": 0.042055556,
    "lon": 18.286422222,
    "elevation": 1050,
    "frequency": 11570,
    "range": 130,
    "ident": "MBA",
    "areaCode": "FZ",
    "name": "MBANDAKA VOR/DME"
  },
  {
    "lat": 26.741994444,
    "lon": -11.691386111,
    "elevation": 815,
    "frequency": 11770,
    "range": 40,
    "ident": "MBA",
    "areaCode": "GM",
    "name": "SMARA VOR/DME"
  },
  {
    "lat": 3.768222222,
    "lon": 8.72025,
    "elevation": 56,
    "frequency": 11450,
    "range": 130,
    "ident": "MBO",
    "areaCode": "FG",
    "name": "MALABO VOR/DME"
  },
  {
    "lat": -6.117727778,
    "lon": 23.565319444,
    "elevation": 2221,
    "frequency": 11290,
    "range": 130,
    "ident": "MBY",
    "areaCode": "FZ",
    "name": "MBUJI-MAYI VOR/DME"
  },
  {
    "lat": 35.280444444,
    "lon": -2.958166667,
    "elevation": 197,
    "frequency": 11425,
    "range": 40,
    "ident": "MEL",
    "areaCode": "GE",
    "name": "MELILLA VOR/DME"
  },
  {
    "lat": -25.790930556,
    "lon": 28.561336111,
    "elevation": 4928,
    "frequency": 11430,
    "range": 130,
    "ident": "MEV",
    "areaCode": "FA",
    "name": "BRONKHORSTSPRUIT VOR/DME"
  },
  {
    "lat": 5.705694444,
    "lon": 9.303944444,
    "elevation": 0,
    "frequency": 11510,
    "range": 130,
    "ident": "MF",
    "areaCode": "FK",
    "name": "MAMFE VOR"
  },
  {
    "lat": -15.6575,
    "lon": 46.340666667,
    "elevation": 98,
    "frequency": 11250,
    "range": 130,
    "ident": "MG",
    "areaCode": "FM",
    "name": "MAHAJANGA VOR/DME"
  },
  {
    "lat": 1.702588889,
    "lon": 11.023444444,
    "elevation": 2217,
    "frequency": 11430,
    "range": 130,
    "ident": "MGY",
    "areaCode": "FG",
    "name": "MONGOMEYEN VOR/DME"
  },
  {
    "lat": -31.550358333,
    "lon": 28.67355,
    "elevation": 2484,
    "frequency": 11510,
    "range": 130,
    "ident": "MHV",
    "areaCode": "FA",
    "name": "MTHATHA VOR/DME"
  },
  {
    "lat": 32.314333333,
    "lon": 15.077694444,
    "elevation": 22,
    "frequency": 11710,
    "range": 130,
    "ident": "MIS",
    "areaCode": "HL",
    "name": "MISRATA VOR/DME"
  },
  {
    "lat": 11.888163889,
    "lon": 13.116669444,
    "elevation": 1066,
    "frequency": 11370,
    "range": 130,
    "ident": "MIU",
    "areaCode": "DN",
    "name": "MAIDUGURI VOR/DME"
  },
  {
    "lat": 33.880833333,
    "lon": -5.516944444,
    "elevation": 0,
    "frequency": 11630,
    "range": 40,
    "ident": "MKS",
    "areaCode": "GM",
    "name": "MEKNES VOR"
  },
  {
    "lat": -3.233536111,
    "lon": 40.102608333,
    "elevation": 100,
    "frequency": 11330,
    "range": 40,
    "ident": "MLD",
    "areaCode": "HK",
    "name": "MALINDI VOR/DME"
  },
  {
    "lat": 9.563194444,
    "lon": 31.653230556,
    "elevation": 1316,
    "frequency": 11270,
    "range": 40,
    "ident": "MLK",
    "areaCode": "HS",
    "name": "MALAKAL VOR/DME"
  },
  {
    "lat": 31.319722222,
    "lon": 27.222333333,
    "elevation": 93,
    "frequency": 11640,
    "range": 130,
    "ident": "MMA",
    "areaCode": "HE",
    "name": "MERSA MATRUH VOR/DME"
  },
  {
    "lat": -25.825897222,
    "lon": 25.535055556,
    "elevation": 4160,
    "frequency": 11290,
    "range": 130,
    "ident": "MMV",
    "areaCode": "FA",
    "name": "MAFIKENG VOR/DME"
  },
  {
    "lat": 30.558547222,
    "lon": 2.861658333,
    "elevation": 1306,
    "frequency": 11210,
    "range": 130,
    "ident": "MNA",
    "areaCode": "DA",
    "name": "EL GOLEA VOR/DME"
  },
  {
    "lat": 9.643186111,
    "lon": 6.449744444,
    "elevation": 728,
    "frequency": 11510,
    "range": 130,
    "ident": "MNA",
    "areaCode": "DN",
    "name": "MINNA VOR/DME"
  },
  {
    "lat": -19.990372222,
    "lon": 23.388811111,
    "elevation": 3100,
    "frequency": 11270,
    "range": 130,
    "ident": "MNV",
    "areaCode": "FB",
    "name": "MAUN VOR/DME"
  },
  {
    "lat": 21.3826,
    "lon": 0.950691667,
    "elevation": 0,
    "frequency": 11300,
    "range": 130,
    "ident": "MOK",
    "areaCode": "DA",
    "name": "BORDJ MOKHTAR VOR"
  },
  {
    "lat": 35.754944444,
    "lon": 10.748194444,
    "elevation": 32,
    "frequency": 11310,
    "range": 130,
    "ident": "MON",
    "areaCode": "DT",
    "name": "MONASTIR VOR/DME"
  },
  {
    "lat": 35.898647222,
    "lon": 0.136297222,
    "elevation": 750,
    "frequency": 11220,
    "range": 130,
    "ident": "MOS",
    "areaCode": "DA",
    "name": "MOSTAGANEM VOR/DME"
  },
  {
    "lat": -3.948533333,
    "lon": 39.642744444,
    "elevation": 196,
    "frequency": 11230,
    "range": 130,
    "ident": "MOV",
    "areaCode": "HK",
    "name": "MOVEX VOR/DME"
  },
  {
    "lat": 4.37825,
    "lon": 18.524833333,
    "elevation": 1187,
    "frequency": 11730,
    "range": 130,
    "ident": "MPK",
    "areaCode": "FE",
    "name": "BANGUI VOR/DME"
  },
  {
    "lat": 18.449777778,
    "lon": 31.818666667,
    "elevation": 881,
    "frequency": 11600,
    "range": 40,
    "ident": "MRW",
    "areaCode": "HS",
    "name": "MEROWE VOR/DME"
  },
  {
    "lat": -18.12425,
    "lon": 49.39425,
    "elevation": 0,
    "frequency": 11310,
    "range": 130,
    "ident": "MT",
    "areaCode": "FM",
    "name": "TOAMASINA VOR"
  },
  {
    "lat": 32.893341667,
    "lon": 13.274136111,
    "elevation": 32,
    "frequency": 11340,
    "range": 130,
    "ident": "MTG",
    "areaCode": "HL",
    "name": "MITIGA VOR/DME"
  },
  {
    "lat": 14.526055556,
    "lon": -4.064722222,
    "elevation": 0,
    "frequency": 11550,
    "range": 130,
    "ident": "MTI",
    "areaCode": "GA",
    "name": "MOPTI VOR"
  },
  {
    "lat": -2.443002778,
    "lon": 32.933902778,
    "elevation": 3730,
    "frequency": 11570,
    "range": 130,
    "ident": "MV",
    "areaCode": "HT",
    "name": "MWANZA VOR/DME"
  },
  {
    "lat": 10.449952778,
    "lon": 14.271294444,
    "elevation": 1419,
    "frequency": 11300,
    "range": 130,
    "ident": "MVR",
    "areaCode": "FK",
    "name": "MAROUA-SALAK VOR/DME"
  },
  {
    "lat": 30.092194444,
    "lon": 31.357277778,
    "elevation": 304,
    "frequency": 11630,
    "range": 40,
    "ident": "MXR",
    "areaCode": "HE",
    "name": "ALMAZA TACAN"
  },
  {
    "lat": -29.5,
    "lon": 27.541111111,
    "elevation": 5577,
    "frequency": 11720,
    "range": 130,
    "ident": "MZV",
    "areaCode": "FX",
    "name": "MAZENOD (MASERU) VOR/DME"
  },
  {
    "lat": -0.304744444,
    "lon": 36.155347222,
    "elevation": 6270,
    "frequency": 11510,
    "range": 130,
    "ident": "NAK",
    "areaCode": "HK",
    "name": "LANET VOR/DME"
  },
  {
    "lat": 36.073944444,
    "lon": 10.43525,
    "elevation": 46,
    "frequency": 11435,
    "range": 130,
    "ident": "NBA",
    "areaCode": "DT",
    "name": "ENFIDHA VOR/DME"
  },
  {
    "lat": -7.316666667,
    "lon": 72.411666667,
    "elevation": 66,
    "frequency": 11200,
    "range": 40,
    "ident": "NKW",
    "areaCode": "FJ",
    "name": "DIEGO GARCIA VORTAC"
  },
  {
    "lat": 3.725805556,
    "lon": 11.556472222,
    "elevation": 2318,
    "frequency": 11570,
    "range": 130,
    "ident": "NLY",
    "areaCode": "FK",
    "name": "YAOUNDE-NSIMALEN VOR/DME"
  },
  {
    "lat": 16.623722222,
    "lon": -7.297,
    "elevation": 0,
    "frequency": 11530,
    "range": 130,
    "ident": "NM",
    "areaCode": "GQ",
    "name": "NEMA VOR"
  },
  {
    "lat": 0.052997222,
    "lon": 32.438002778,
    "elevation": 3782,
    "frequency": 11750,
    "range": 130,
    "ident": "NN",
    "areaCode": "HU",
    "name": "ENTEBBE VOR/DME"
  },
  {
    "lat": 31.187638889,
    "lon": 29.950722222,
    "elevation": 10,
    "frequency": 11590,
    "range": 130,
    "ident": "NOZ",
    "areaCode": "HE",
    "name": "ALEXANDRIA VOR/DME"
  },
  {
    "lat": -13.305555556,
    "lon": 48.323305556,
    "elevation": 131,
    "frequency": 11750,
    "range": 130,
    "ident": "NSB",
    "areaCode": "FM",
    "name": "NOSY-BE VOR/DME"
  },
  {
    "lat": 27.246738889,
    "lon": 2.502566667,
    "elevation": 945,
    "frequency": 11310,
    "range": 130,
    "ident": "NSL",
    "areaCode": "DA",
    "name": "IN SALAH VOR/DME"
  },
  {
    "lat": -25.498238889,
    "lon": 30.915672222,
    "elevation": 2846,
    "frequency": 11620,
    "range": 40,
    "ident": "NSV",
    "areaCode": "FA",
    "name": "NELSPRUIT VOR/DME"
  },
  {
    "lat": 9.747333333,
    "lon": 1.082694444,
    "elevation": 1526,
    "frequency": 11320,
    "range": 130,
    "ident": "NT",
    "areaCode": "DX",
    "name": "NIAMTOUGOU VOR/DME"
  },
  {
    "lat": -1.299902778,
    "lon": 36.954227778,
    "elevation": 5282,
    "frequency": 11310,
    "range": 130,
    "ident": "NV",
    "areaCode": "HK",
    "name": "NAVEX VOR/DME"
  },
  {
    "lat": -31.38,
    "lon": 19.071111111,
    "elevation": 0,
    "frequency": 11610,
    "range": 130,
    "ident": "NVV",
    "areaCode": "FA",
    "name": "NIEUWOUDTVILLE VOR"
  },
  {
    "lat": 13.483333333,
    "lon": 2.206388889,
    "elevation": 722,
    "frequency": 11410,
    "range": 130,
    "ident": "NY",
    "areaCode": "DR",
    "name": "NIAMEY VOR/DME"
  },
  {
    "lat": 12.071813889,
    "lon": 24.972533333,
    "elevation": 2159,
    "frequency": 11630,
    "range": 40,
    "ident": "NYL",
    "areaCode": "HS",
    "name": "NYALA VOR/DME"
  },
  {
    "lat": -17.876666667,
    "lon": 15.949166667,
    "elevation": 3599,
    "frequency": 11630,
    "range": 130,
    "ident": "OAV",
    "areaCode": "FY",
    "name": "ONDANGWA VOR/DME"
  },
  {
    "lat": 13.147694444,
    "lon": 30.233444444,
    "elevation": 1942,
    "frequency": 11580,
    "range": 130,
    "ident": "OBD",
    "areaCode": "HS",
    "name": "EL OBEID VOR/DME"
  },
  {
    "lat": -34.556119444,
    "lon": 20.247138889,
    "elevation": 43,
    "frequency": 11540,
    "range": 130,
    "ident": "OBV",
    "areaCode": "FA",
    "name": "OVERBERG VORTAC"
  },
  {
    "lat": 9.5301,
    "lon": -7.573738889,
    "elevation": 1367,
    "frequency": 11720,
    "range": 130,
    "ident": "ODN",
    "areaCode": "DI",
    "name": "ODIENNE VOR/DME"
  },
  {
    "lat": 1.535694444,
    "lon": 11.575694444,
    "elevation": 2156,
    "frequency": 11300,
    "range": 130,
    "ident": "OE",
    "areaCode": "FO",
    "name": "OYEM VOR/DME"
  },
  {
    "lat": 12.346277778,
    "lon": -1.512833333,
    "elevation": 1048,
    "frequency": 11290,
    "range": 40,
    "ident": "OG",
    "areaCode": "DF",
    "name": "OUAGADOUGOU VOR/DME"
  },
  {
    "lat": 34.773333333,
    "lon": -1.950277778,
    "elevation": 1584,
    "frequency": 11750,
    "range": 40,
    "ident": "OJD",
    "areaCode": "GM",
    "name": "OUJDA VOR/DME"
  },
  {
    "lat": 35.612647222,
    "lon": -0.654988889,
    "elevation": 295,
    "frequency": 11400,
    "range": 130,
    "ident": "ORA",
    "areaCode": "DA",
    "name": "AHMED BENBELLA VOR/DME"
  },
  {
    "lat": 5.599622222,
    "lon": 5.817708333,
    "elevation": 47,
    "frequency": 11710,
    "range": 130,
    "ident": "OSB",
    "areaCode": "DN",
    "name": "OSUBI VOR/DME"
  },
  {
    "lat": 18.280444444,
    "lon": -15.951722222,
    "elevation": 33,
    "frequency": 11560,
    "range": 130,
    "ident": "OT",
    "areaCode": "GQ",
    "name": "OUMTOUNSY VOR/DME"
  },
  {
    "lat": 31.941666667,
    "lon": 5.416666667,
    "elevation": 459,
    "frequency": 11270,
    "range": 130,
    "ident": "OUR",
    "areaCode": "DA",
    "name": "OUARGLA VOR/DME"
  },
  {
    "lat": 5.447783333,
    "lon": 7.201316667,
    "elevation": 399,
    "frequency": 11490,
    "range": 130,
    "ident": "OWR",
    "areaCode": "DN",
    "name": "OWERRI VOR/DME"
  },
  {
    "lat": 30.939930556,
    "lon": -6.904561111,
    "elevation": 3838,
    "frequency": 11670,
    "range": 130,
    "ident": "OZT",
    "areaCode": "GM",
    "name": "OUARZAZATE VOR/DME"
  },
  {
    "lat": 9.370122222,
    "lon": 2.619111111,
    "elevation": 0,
    "frequency": 11280,
    "range": 130,
    "ident": "PA",
    "areaCode": "DB",
    "name": "PARAKOU VOR"
  },
  {
    "lat": 8.015,
    "lon": 0.561666667,
    "elevation": 1550,
    "frequency": 11590,
    "range": 130,
    "ident": "PAM",
    "areaCode": "DG",
    "name": "PAMPA VOR/DME"
  },
  {
    "lat": 20.914444444,
    "lon": -17.034966667,
    "elevation": 26,
    "frequency": 11350,
    "range": 130,
    "ident": "PE",
    "areaCode": "GQ",
    "name": "NOUADHIBOU VOR/DME"
  },
  {
    "lat": -33.992502778,
    "lon": 25.60575,
    "elevation": 215,
    "frequency": 11290,
    "range": 130,
    "ident": "PEV",
    "areaCode": "FA",
    "name": "PORT ELIZABETH VOR/DME"
  },
  {
    "lat": -0.728777778,
    "lon": 8.747472222,
    "elevation": 0,
    "frequency": 11230,
    "range": 130,
    "ident": "PG",
    "areaCode": "FO",
    "name": "PORT GENTIL VOR"
  },
  {
    "lat": -23.900758333,
    "lon": 31.151969444,
    "elevation": 0,
    "frequency": 11530,
    "range": 40,
    "ident": "PHV",
    "areaCode": "FA",
    "name": "PHALABORWA VOR"
  },
  {
    "lat": -31.608877778,
    "lon": 29.519858333,
    "elevation": 0,
    "frequency": 11590,
    "range": 130,
    "ident": "PJV",
    "areaCode": "FA",
    "name": "PORT ST JOHNS VOR"
  },
  {
    "lat": -25.381025,
    "lon": 31.111125,
    "elevation": 2954,
    "frequency": 11250,
    "range": 130,
    "ident": "PKV",
    "areaCode": "FA",
    "name": "KRUGER MPUMALANGA VOR/DME"
  },
  {
    "lat": -20.420027778,
    "lon": 57.662388889,
    "elevation": 183,
    "frequency": 11370,
    "range": 130,
    "ident": "PLS",
    "areaCode": "FI",
    "name": "PLAISANCE (MAURITIUS) VOR/DME"
  },
  {
    "lat": -29.647813889,
    "lon": 30.400355556,
    "elevation": 2423,
    "frequency": 11790,
    "range": 130,
    "ident": "PMV",
    "areaCode": "FA",
    "name": "PIETERMARITZBURG VOR/DME"
  },
  {
    "lat": -25.395841667,
    "lon": 27.122705556,
    "elevation": 3412,
    "frequency": 11260,
    "range": 130,
    "ident": "PNV",
    "areaCode": "FA",
    "name": "PILANESBERG VOR/DME"
  },
  {
    "lat": 11.705027778,
    "lon": 11.037658333,
    "elevation": 1500,
    "frequency": 11210,
    "range": 40,
    "ident": "PO",
    "areaCode": "DN",
    "name": "POTISKUM VOR/DME"
  },
  {
    "lat": 5.03535,
    "lon": 6.960183333,
    "elevation": 118,
    "frequency": 11350,
    "range": 130,
    "ident": "POT",
    "areaCode": "DN",
    "name": "PORT HARCOURT VOR/DME"
  },
  {
    "lat": -23.839819444,
    "lon": 29.460566667,
    "elevation": 4023,
    "frequency": 11450,
    "range": 130,
    "ident": "PPV",
    "areaCode": "FA",
    "name": "POLOKWANE VOR/DME"
  },
  {
    "lat": -4.307366667,
    "lon": 55.707080556,
    "elevation": 1106,
    "frequency": 11570,
    "range": 130,
    "ident": "PRA",
    "areaCode": "FS",
    "name": "PRASLIN VOR/DME"
  },
  {
    "lat": -21.319777778,
    "lon": 55.420305556,
    "elevation": 89,
    "frequency": 11590,
    "range": 130,
    "ident": "PRF",
    "areaCode": "FM",
    "name": "ST PIERRE (PIERREFONDS) VOR/DME"
  },
  {
    "lat": 31.278727778,
    "lon": 32.237794444,
    "elevation": 30,
    "frequency": 11320,
    "range": 130,
    "ident": "PSD",
    "areaCode": "HE",
    "name": "PORT SAID VOR/DME"
  },
  {
    "lat": 19.401172222,
    "lon": 37.241719444,
    "elevation": 160,
    "frequency": 11310,
    "range": 40,
    "ident": "PSD",
    "areaCode": "HS",
    "name": "PORT SUDAN VOR/DME"
  },
  {
    "lat": -30.366225,
    "lon": 24.695016667,
    "elevation": 0,
    "frequency": 11270,
    "range": 130,
    "ident": "PVV",
    "areaCode": "FA",
    "name": "PETRUSVILLE VOR"
  },
  {
    "lat": 13.472772222,
    "lon": 39.524747222,
    "elevation": 7406,
    "frequency": 11660,
    "range": 130,
    "ident": "QHA",
    "areaCode": "HA",
    "name": "MEKELE VOR/DME"
  },
  {
    "lat": -26.245386111,
    "lon": 28.154516667,
    "elevation": 5493,
    "frequency": 11770,
    "range": 130,
    "ident": "RAV",
    "areaCode": "FA",
    "name": "RAND (JOHANNESBURG) VOR/DME"
  },
  {
    "lat": 34.049925,
    "lon": -6.746386111,
    "elevation": 318,
    "frequency": 11650,
    "range": 130,
    "ident": "RBT",
    "areaCode": "GM",
    "name": "RABAT VOR/DME"
  },
  {
    "lat": -28.740691667,
    "lon": 32.093586111,
    "elevation": 93,
    "frequency": 11300,
    "range": 130,
    "ident": "RBV",
    "areaCode": "FA",
    "name": "RICHARDS BAY VOR/DME"
  },
  {
    "lat": -33.799569444,
    "lon": 18.364472222,
    "elevation": 39,
    "frequency": 11760,
    "range": 130,
    "ident": "RIV",
    "areaCode": "FA",
    "name": "ROBBEN ISLAND VOR/DME"
  },
  {
    "lat": 6.231138889,
    "lon": -10.365694444,
    "elevation": 148,
    "frequency": 11380,
    "range": 40,
    "ident": "ROB",
    "areaCode": "GL",
    "name": "ROBERTS (MONROVIA) VOR/DME"
  },
  {
    "lat": -20.884833333,
    "lon": 55.509805556,
    "elevation": 57,
    "frequency": 11290,
    "range": 130,
    "ident": "SDG",
    "areaCode": "FM",
    "name": "LA REUNION VOR/DME"
  },
  {
    "lat": 36.629913889,
    "lon": 2.972638889,
    "elevation": 82,
    "frequency": 11390,
    "range": 130,
    "ident": "SDM",
    "areaCode": "DA",
    "name": "SIDI M'HAMED (ALGIERS) VOR/DME"
  },
  {
    "lat": 26.995594444,
    "lon": 14.459736111,
    "elevation": 1405,
    "frequency": 11470,
    "range": 130,
    "ident": "SEB",
    "areaCode": "HL",
    "name": "SEBHA VOR/DME"
  },
  {
    "lat": 34.716138889,
    "lon": 10.688916667,
    "elevation": 0,
    "frequency": 11400,
    "range": 130,
    "ident": "SFX",
    "areaCode": "DT",
    "name": "SFAX VOR"
  },
  {
    "lat": -15.959225,
    "lon": -5.647755556,
    "elevation": 1047,
    "frequency": 11310,
    "range": 130,
    "ident": "SH",
    "areaCode": "FH",
    "name": "ST HELENA VOR/DME"
  },
  {
    "lat": 26.361416667,
    "lon": 31.730305556,
    "elevation": 313,
    "frequency": 11530,
    "range": 130,
    "ident": "SHG",
    "areaCode": "HE",
    "name": "SUHAG VOR/DME"
  },
  {
    "lat": 27.997972222,
    "lon": 34.413388889,
    "elevation": 130,
    "frequency": 11420,
    "range": 130,
    "ident": "SHM",
    "areaCode": "HE",
    "name": "SHARM EL SHEIKH VOR/DME"
  },
  {
    "lat": 11.592222222,
    "lon": -5.815833333,
    "elevation": 1357,
    "frequency": 11650,
    "range": 130,
    "ident": "SKO",
    "areaCode": "GA",
    "name": "SIKASSO VOR/DME"
  },
  {
    "lat": 33.115686111,
    "lon": -7.5061,
    "elevation": 988,
    "frequency": 11250,
    "range": 130,
    "ident": "SLK",
    "areaCode": "GM",
    "name": "SIDI KHEDIM (CASABLANCA) VOR/DME"
  },
  {
    "lat": -32.45,
    "lon": 20.6225,
    "elevation": 0,
    "frequency": 11330,
    "range": 130,
    "ident": "SLV",
    "areaCode": "FA",
    "name": "SUTHERLAND VOR"
  },
  {
    "lat": 22.355,
    "lon": 31.621944444,
    "elevation": 640,
    "frequency": 11350,
    "range": 130,
    "ident": "SML",
    "areaCode": "HE",
    "name": "ABU SIMBEL VOR/DME"
  },
  {
    "lat": 34.235277778,
    "lon": -6.052222222,
    "elevation": 1,
    "frequency": 11550,
    "range": 40,
    "ident": "SMN",
    "areaCode": "GM",
    "name": "SIDI SLIMANE VOR/DME"
  },
  {
    "lat": 14.939094444,
    "lon": -23.482122222,
    "elevation": 340,
    "frequency": 11660,
    "range": 130,
    "ident": "SNT",
    "areaCode": "GV",
    "name": "PRAIA VOR/DME"
  },
  {
    "lat": 12.921094444,
    "lon": 5.229319444,
    "elevation": 1040,
    "frequency": 11390,
    "range": 130,
    "ident": "SOK",
    "areaCode": "DN",
    "name": "SOKOTO VOR/DME"
  },
  {
    "lat": 4.756666667,
    "lon": -6.654361111,
    "elevation": 85,
    "frequency": 11490,
    "range": 130,
    "ident": "SPO",
    "areaCode": "DI",
    "name": "SAN PEDRO VOR/DME"
  },
  {
    "lat": 31.05905,
    "lon": 16.598,
    "elevation": 267,
    "frequency": 11700,
    "range": 130,
    "ident": "SRT",
    "areaCode": "HL",
    "name": "SIRTE VOR/DME"
  },
  {
    "lat": -27.652175,
    "lon": 23.003052778,
    "elevation": 3887,
    "frequency": 11360,
    "range": 130,
    "ident": "SSV",
    "areaCode": "FA",
    "name": "SISHEN VOR/DME"
  },
  {
    "lat": 36.176416667,
    "lon": 5.323080556,
    "elevation": 3330,
    "frequency": 11460,
    "range": 130,
    "ident": "STF",
    "areaCode": "DA",
    "name": "SETIF VOR/DME"
  },
  {
    "lat": 0.378447222,
    "lon": 6.717058333,
    "elevation": 39,
    "frequency": 11730,
    "range": 130,
    "ident": "STM",
    "areaCode": "FP",
    "name": "SAO TOME VOR/DME"
  },
  {
    "lat": -26.696719444,
    "lon": 28.867461111,
    "elevation": 0,
    "frequency": 11600,
    "range": 130,
    "ident": "STV",
    "areaCode": "FA",
    "name": "STANDERTON VOR"
  },
  {
    "lat": 1.725966667,
    "lon": 33.618519444,
    "elevation": 3695,
    "frequency": 11250,
    "range": 130,
    "ident": "SV",
    "areaCode": "HU",
    "name": "SOROTI VOR/DME"
  },
  {
    "lat": -33.249347222,
    "lon": 18.478388889,
    "elevation": 0,
    "frequency": 11300,
    "range": 130,
    "ident": "SVV",
    "areaCode": "FA",
    "name": "SOMERSVELD VOR"
  },
  {
    "lat": 29.606722222,
    "lon": 34.797444444,
    "elevation": 2430,
    "frequency": 11450,
    "range": 130,
    "ident": "TBA",
    "areaCode": "HE",
    "name": "TABA VOR/DME"
  },
  {
    "lat": 36.978166667,
    "lon": 8.883583333,
    "elevation": 247,
    "frequency": 11330,
    "range": 130,
    "ident": "TBK",
    "areaCode": "DT",
    "name": "TABARKA VOR/DME"
  },
  {
    "lat": 31.856886111,
    "lon": 23.912177778,
    "elevation": 619,
    "frequency": 11230,
    "range": 130,
    "ident": "TBQ",
    "areaCode": "HL",
    "name": "TOBRUK VOR/DME"
  },
  {
    "lat": 35.456566667,
    "lon": 8.068625,
    "elevation": 2605,
    "frequency": 11450,
    "range": 130,
    "ident": "TBS",
    "areaCode": "DA",
    "name": "TEBESSA VOR/DME"
  },
  {
    "lat": 16.734,
    "lon": -3.003361111,
    "elevation": 902,
    "frequency": 11730,
    "range": 130,
    "ident": "TBT",
    "areaCode": "GA",
    "name": "TOMBOUCTOU VOR/DME"
  },
  {
    "lat": 8.637083333,
    "lon": 16.08025,
    "elevation": 1427,
    "frequency": 11470,
    "range": 130,
    "ident": "TD",
    "areaCode": "FT",
    "name": "MOUNDOU VOR/DME"
  },
  {
    "lat": 13.727961111,
    "lon": -13.663647222,
    "elevation": 0,
    "frequency": 11450,
    "range": 130,
    "ident": "TD",
    "areaCode": "GO",
    "name": "TAMBACOUNDA VOR"
  },
  {
    "lat": 27.710072222,
    "lon": -8.130888889,
    "elevation": 1427,
    "frequency": 11420,
    "range": 130,
    "ident": "TDF",
    "areaCode": "DA",
    "name": "TINDOUF VOR/DME"
  },
  {
    "lat": 28.536833333,
    "lon": -16.268777778,
    "elevation": 3346,
    "frequency": 11770,
    "range": 130,
    "ident": "TFN",
    "areaCode": "GC",
    "name": "TENERIFE-NORTH VOR/DME"
  },
  {
    "lat": 28.002444444,
    "lon": -16.687916667,
    "elevation": 98,
    "frequency": 11640,
    "range": 130,
    "ident": "TFS",
    "areaCode": "GC",
    "name": "TENERIFE-SOUTH VOR/DME"
  },
  {
    "lat": 27.923416667,
    "lon": -15.3895,
    "elevation": 128,
    "frequency": 11560,
    "range": 40,
    "ident": "TGN",
    "areaCode": "GC",
    "name": "GRAN CANARIA TACAN"
  },
  {
    "lat": 33.057194444,
    "lon": 6.0888,
    "elevation": 279,
    "frequency": 11320,
    "range": 130,
    "ident": "TGU",
    "areaCode": "DA",
    "name": "TOUGGOURT VOR/DME"
  },
  {
    "lat": -29.611166667,
    "lon": 31.124730556,
    "elevation": 372,
    "frequency": 11560,
    "range": 130,
    "ident": "TGV",
    "areaCode": "FA",
    "name": "KING SHAKA (DURBAN) VOR/DME"
  },
  {
    "lat": 29.226080556,
    "lon": 0.258094444,
    "elevation": 1024,
    "frequency": 11280,
    "range": 130,
    "ident": "TIO",
    "areaCode": "DA",
    "name": "TIMIMOUN VOR/DME"
  },
  {
    "lat": 7.330083333,
    "lon": 13.548166667,
    "elevation": 0,
    "frequency": 11270,
    "range": 130,
    "ident": "TJN",
    "areaCode": "FK",
    "name": "N'GAOUNDERE VOR"
  },
  {
    "lat": 9.334361111,
    "lon": 13.344555556,
    "elevation": 689,
    "frequency": 11230,
    "range": 130,
    "ident": "TJR",
    "areaCode": "FK",
    "name": "GAROUA VOR/DME"
  },
  {
    "lat": 9.573497222,
    "lon": -0.847133333,
    "elevation": 505,
    "frequency": 11690,
    "range": 130,
    "ident": "TLE",
    "areaCode": "DG",
    "name": "TAMALE VOR/DME"
  },
  {
    "lat": 35.015019444,
    "lon": -1.446144444,
    "elevation": 843,
    "frequency": 11650,
    "range": 130,
    "ident": "TLM",
    "areaCode": "DA",
    "name": "TLEMCEN VOR/DME"
  },
  {
    "lat": 28.944833333,
    "lon": -13.607,
    "elevation": 65,
    "frequency": 11470,
    "range": 40,
    "ident": "TLZ",
    "areaCode": "GC",
    "name": "LANZAROTE TACAN"
  },
  {
    "lat": 22.807611111,
    "lon": 5.446527778,
    "elevation": 4518,
    "frequency": 11250,
    "range": 130,
    "ident": "TMS",
    "areaCode": "DA",
    "name": "TAMENGHASSET VOR/DME"
  },
  {
    "lat": 35.728813889,
    "lon": -5.890797222,
    "elevation": 105,
    "frequency": 11590,
    "range": 130,
    "ident": "TNG",
    "areaCode": "GM",
    "name": "TANGER VOR/DME"
  },
  {
    "lat": 28.428444444,
    "lon": -11.173083333,
    "elevation": 682,
    "frequency": 11230,
    "range": 130,
    "ident": "TNN",
    "areaCode": "GM",
    "name": "TAN TAN VOR/DME"
  },
  {
    "lat": -18.803333333,
    "lon": 47.518666667,
    "elevation": 4134,
    "frequency": 11510,
    "range": 130,
    "ident": "TNV",
    "areaCode": "FM",
    "name": "ANTANANARIVO VOR/DME"
  },
  {
    "lat": 33.941,
    "lon": 8.100388889,
    "elevation": 289,
    "frequency": 11700,
    "range": 130,
    "ident": "TON",
    "areaCode": "DT",
    "name": "TOZEUR VOR/DME"
  },
  {
    "lat": 32.662977778,
    "lon": 13.118408333,
    "elevation": 263,
    "frequency": 11460,
    "range": 130,
    "ident": "TPI",
    "areaCode": "HL",
    "name": "TRIPOLI VOR/DME"
  },
  {
    "lat": 35.347755556,
    "lon": 1.514916667,
    "elevation": 3245,
    "frequency": 11630,
    "range": 130,
    "ident": "TRB",
    "areaCode": "DA",
    "name": "TIARET VOR/DME"
  },
  {
    "lat": 35.594986111,
    "lon": -5.324602778,
    "elevation": 39,
    "frequency": 11730,
    "range": 130,
    "ident": "TTN",
    "areaCode": "GM",
    "name": "TETOUAN VOR/DME"
  },
  {
    "lat": -23.39075,
    "lon": 43.722,
    "elevation": 29,
    "frequency": 11450,
    "range": 130,
    "ident": "TU",
    "areaCode": "FM",
    "name": "TOLIARY VOR/DME"
  },
  {
    "lat": 36.851583333,
    "lon": 10.230333333,
    "elevation": 43,
    "frequency": 11650,
    "range": 130,
    "ident": "TUC",
    "areaCode": "DT",
    "name": "TUNIS VOR/DME"
  },
  {
    "lat": -1.503438889,
    "lon": 37.021225,
    "elevation": 0,
    "frequency": 11550,
    "range": 40,
    "ident": "TV",
    "areaCode": "HK",
    "name": "STONY VOR"
  },
  {
    "lat": 6.362133333,
    "lon": 2.393283333,
    "elevation": 46,
    "frequency": 11330,
    "range": 130,
    "ident": "TYE",
    "areaCode": "DB",
    "name": "COTONOU VOR/DME"
  },
  {
    "lat": -28.401752778,
    "lon": 21.260411111,
    "elevation": 2754,
    "frequency": 11650,
    "range": 130,
    "ident": "UPV",
    "areaCode": "FA",
    "name": "UPINGTON VOR/DME"
  },
  {
    "lat": -19.787191667,
    "lon": 34.871094444,
    "elevation": 45,
    "frequency": 11370,
    "range": 40,
    "ident": "VBR",
    "areaCode": "FQ",
    "name": "BEIRA VOR/DME"
  },
  {
    "lat": -20.029055556,
    "lon": 28.643861111,
    "elevation": 4370,
    "frequency": 11570,
    "range": 130,
    "ident": "VBU",
    "areaCode": "FV",
    "name": "J.M. NKOMO (BULAWAYO) VOR/DME"
  },
  {
    "lat": -5.634444444,
    "lon": 12.189444444,
    "elevation": 132,
    "frequency": 11430,
    "range": 130,
    "ident": "VCA",
    "areaCode": "FN",
    "name": "CABINDA VOR/DME"
  },
  {
    "lat": -15.6725,
    "lon": 34.916388889,
    "elevation": 2424,
    "frequency": 11330,
    "range": 130,
    "ident": "VCL",
    "areaCode": "FW",
    "name": "CHILEKA (BLANTYRE) VOR/DME"
  },
  {
    "lat": 34.815744444,
    "lon": -1.960461111,
    "elevation": 1520,
    "frequency": 11565,
    "range": 40,
    "ident": "VDO",
    "areaCode": "GM",
    "name": "OUJDA VOR/DME"
  },
  {
    "lat": -18.090036111,
    "lon": 25.814333333,
    "elevation": 3508,
    "frequency": 11670,
    "range": 130,
    "ident": "VFA",
    "areaCode": "FV",
    "name": "VICTORIA FALLS VOR/DME"
  },
  {
    "lat": -18.244444444,
    "lon": 28.969722222,
    "elevation": 4200,
    "frequency": 11370,
    "range": 40,
    "ident": "VGO",
    "areaCode": "FV",
    "name": "GOKWE VOR/DME"
  },
  {
    "lat": -12.808611111,
    "lon": 15.749444444,
    "elevation": 5592,
    "frequency": 11330,
    "range": 130,
    "ident": "VHU",
    "areaCode": "FN",
    "name": "HUAMBO VOR/DME"
  },
  {
    "lat": -9.953980556,
    "lon": 33.8912,
    "elevation": 1765,
    "frequency": 11530,
    "range": 130,
    "ident": "VKA",
    "areaCode": "FW",
    "name": "KARONGA VOR/DME"
  },
  {
    "lat": -13.279777778,
    "lon": 35.249222222,
    "elevation": 4491,
    "frequency": 11710,
    "range": 130,
    "ident": "VLC",
    "areaCode": "FQ",
    "name": "LICHINGA VOR/DME"
  },
  {
    "lat": -17.812605556,
    "lon": 25.820019444,
    "elevation": 3280,
    "frequency": 11250,
    "range": 130,
    "ident": "VLI",
    "areaCode": "FL",
    "name": "HARRY NKUMBULA VOR/DME"
  },
  {
    "lat": -15.326666667,
    "lon": 28.42,
    "elevation": 3804,
    "frequency": 11350,
    "range": 40,
    "ident": "VLS",
    "areaCode": "FL",
    "name": "LUSAKA VOR/DME"
  },
  {
    "lat": -25.868805556,
    "lon": 32.604333333,
    "elevation": 143,
    "frequency": 11270,
    "range": 130,
    "ident": "VMA",
    "areaCode": "FQ",
    "name": "MAPUTO VOR/DME"
  },
  {
    "lat": -13.260388889,
    "lon": 31.915111111,
    "elevation": 1871,
    "frequency": 11290,
    "range": 40,
    "ident": "VMF",
    "areaCode": "FL",
    "name": "MFUWE VOR/DME"
  },
  {
    "lat": -15.253611111,
    "lon": 12.165,
    "elevation": 171,
    "frequency": 11410,
    "range": 130,
    "ident": "VMO",
    "areaCode": "FN",
    "name": "NAMIBE VOR/DME"
  },
  {
    "lat": -20.056777778,
    "lon": 30.853611111,
    "elevation": 3600,
    "frequency": 11510,
    "range": 40,
    "ident": "VMV",
    "areaCode": "FV",
    "name": "MASVINGO VOR/DME"
  },
  {
    "lat": -11.413644444,
    "lon": 34.001866667,
    "elevation": 4115,
    "frequency": 11610,
    "range": 130,
    "ident": "VMZ",
    "areaCode": "FW",
    "name": "MZUZU VOR/DME"
  },
  {
    "lat": -8.845477778,
    "lon": 13.247483333,
    "elevation": 221,
    "frequency": 11270,
    "range": 130,
    "ident": "VNA",
    "areaCode": "FN",
    "name": "LUANDA VOR/DME"
  },
  {
    "lat": -14.463277778,
    "lon": 40.714230556,
    "elevation": 316,
    "frequency": 11650,
    "range": 130,
    "ident": "VNC",
    "areaCode": "FQ",
    "name": "NACALA VOR/DME"
  },
  {
    "lat": -12.998333333,
    "lon": 28.666666667,
    "elevation": 4196,
    "frequency": 11210,
    "range": 130,
    "ident": "VND",
    "areaCode": "FL",
    "name": "NDOLA VOR/DME"
  },
  {
    "lat": -15.088611111,
    "lon": 39.299722222,
    "elevation": 1381,
    "frequency": 11390,
    "range": 130,
    "ident": "VNP",
    "areaCode": "FQ",
    "name": "NAMPULA VOR/DME"
  },
  {
    "lat": -17.85,
    "lon": 36.866666667,
    "elevation": 36,
    "frequency": 11230,
    "range": 130,
    "ident": "VQL",
    "areaCode": "FQ",
    "name": "QUELIMANE VOR/DME"
  },
  {
    "lat": -9.688055556,
    "lon": 20.434166667,
    "elevation": 3559,
    "frequency": 11710,
    "range": 130,
    "ident": "VSA",
    "areaCode": "FN",
    "name": "SAURIMO VOR/DME"
  },
  {
    "lat": -17.907183333,
    "lon": 31.118538889,
    "elevation": 4900,
    "frequency": 11310,
    "range": 130,
    "ident": "VSB",
    "areaCode": "FV",
    "name": "HARARE VOR/DME"
  },
  {
    "lat": -26.379416667,
    "lon": 31.717263889,
    "elevation": 1127,
    "frequency": 11710,
    "range": 130,
    "ident": "VSK",
    "areaCode": "FD",
    "name": "SIKHUPHE VOR/DME"
  },
  {
    "lat": -19.439166667,
    "lon": 29.864722222,
    "elevation": 4725,
    "frequency": 11430,
    "range": 40,
    "ident": "VTL",
    "areaCode": "FV",
    "name": "THORNHILL (GWERU) VOR/DME"
  },
  {
    "lat": -16.124444444,
    "lon": 33.64,
    "elevation": 0,
    "frequency": 11410,
    "range": 130,
    "ident": "VTZ",
    "areaCode": "FQ",
    "name": "TETE VOR"
  },
  {
    "lat": -14.916666667,
    "lon": 13.6,
    "elevation": 5778,
    "frequency": 11230,
    "range": 130,
    "ident": "VUB",
    "areaCode": "FN",
    "name": "LUBANGO VOR/DME"
  },
  {
    "lat": -11.765833333,
    "lon": 19.8975,
    "elevation": 0,
    "frequency": 11370,
    "range": 130,
    "ident": "VUE",
    "areaCode": "FN",
    "name": "LUENA VOR"
  },
  {
    "lat": -18.640416667,
    "lon": 26.9935,
    "elevation": 3600,
    "frequency": 11450,
    "range": 130,
    "ident": "VWN",
    "areaCode": "FV",
    "name": "HWANGE NATIONAL PARK VOR/DME"
  },
  {
    "lat": -31.396944444,
    "lon": 23.108888889,
    "elevation": 0,
    "frequency": 11370,
    "range": 130,
    "ident": "VWV",
    "areaCode": "FA",
    "name": "VICTORIA WEST VOR"
  },
  {
    "lat": 1.746813889,
    "lon": 40.082425,
    "elevation": 788,
    "frequency": 11250,
    "range": 130,
    "ident": "WAV",
    "areaCode": "HK",
    "name": "WAJIR VOR/DME"
  },
  {
    "lat": -22.982111111,
    "lon": 14.644583333,
    "elevation": 299,
    "frequency": 11360,
    "range": 40,
    "ident": "WBV",
    "areaCode": "FY",
    "name": "WALVIS BAY VOR/DME"
  },
  {
    "lat": -22.477361111,
    "lon": 17.470555556,
    "elevation": 5613,
    "frequency": 11450,
    "range": 130,
    "ident": "WHV",
    "areaCode": "FY",
    "name": "WINDHOEK VOR/DME"
  },
  {
    "lat": -25.829525,
    "lon": 29.194758333,
    "elevation": 0,
    "frequency": 11330,
    "range": 130,
    "ident": "WIV",
    "areaCode": "FA",
    "name": "WITBANK VOR"
  },
  {
    "lat": -25.833344444,
    "lon": 28.220363889,
    "elevation": 4903,
    "frequency": 11690,
    "range": 40,
    "ident": "WKV",
    "areaCode": "FA",
    "name": "WATERKLOOF VORTAC"
  },
  {
    "lat": 31.782519444,
    "lon": 14.009430556,
    "elevation": 1000,
    "frequency": 11590,
    "range": 40,
    "ident": "WLD",
    "areaCode": "HL",
    "name": "BENI WALID VOR/DME"
  },
  {
    "lat": -28.001594444,
    "lon": 26.661147222,
    "elevation": 4399,
    "frequency": 11640,
    "range": 40,
    "ident": "WMV",
    "areaCode": "FA",
    "name": "WELKOM VOR/DME"
  },
  {
    "lat": -27.774794444,
    "lon": 29.069472222,
    "elevation": 0,
    "frequency": 11280,
    "range": 130,
    "ident": "WRV",
    "areaCode": "FA",
    "name": "WARDEN VOR"
  },
  {
    "lat": 6.888877778,
    "lon": -5.37885,
    "elevation": 664,
    "frequency": 11580,
    "range": 130,
    "ident": "YAM",
    "areaCode": "DI",
    "name": "YAMOUSSOUKRO VOR/DME"
  },
  {
    "lat": 14.744833333,
    "lon": -17.474777778,
    "elevation": 135,
    "frequency": 11310,
    "range": 130,
    "ident": "YF",
    "areaCode": "GO",
    "name": "DAKAR VOR/DME"
  },
  {
    "lat": 9.292069444,
    "lon": 12.424658333,
    "elevation": 599,
    "frequency": 11550,
    "range": 130,
    "ident": "YOL",
    "areaCode": "DN",
    "name": "YOLA VOR/DME"
  },
  {
    "lat": 32.778638889,
    "lon": 12.646388889,
    "elevation": 100,
    "frequency": 11770,
    "range": 40,
    "ident": "ZAW",
    "areaCode": "HL",
    "name": "ZAWIA VOR/DME"
  },
  {
    "lat": 36.795,
    "lon": 3.570833333,
    "elevation": 750,
    "frequency": 11660,
    "range": 130,
    "ident": "ZEM",
    "areaCode": "DA",
    "name": "ZEMMOURI VOR/DME"
  },
  {
    "lat": 12.557527778,
    "lon": -16.272572222,
    "elevation": 0,
    "frequency": 11250,
    "range": 40,
    "ident": "ZG",
    "areaCode": "GO",
    "name": "ZIGUINCHOR VOR"
  },
  {
    "lat": 28.049722222,
    "lon": 9.644211111,
    "elevation": 1847,
    "frequency": 11700,
    "range": 40,
    "ident": "ZIN",
    "areaCode": "DA",
    "name": "ZARZAITINE VOR/DME"
  },
  {
    "lat": 13.770577778,
    "lon": 8.972388889,
    "elevation": 0,
    "frequency": 11620,
    "range": 130,
    "ident": "ZR",
    "areaCode": "DR",
    "name": "ZINDER VOR"
  },
  {
    "lat": 22.758527778,
    "lon": -12.461583333,
    "elevation": 0,
    "frequency": 11270,
    "range": 130,
    "ident": "ZRT",
    "areaCode": "GQ",
    "name": "ZOUERATE VOR"
  },
  {
    "lat": -6.244763889,
    "lon": 39.227202778,
    "elevation": 30,
    "frequency": 11670,
    "range": 130,
    "ident": "ZV",
    "areaCode": "HT",
    "name": "ZANZIBAR VOR/DME"
  },
  {
    "lat": 58.724713889,
    "lon": -156.752347222,
    "elevation": 95,
    "frequency": 11280,
    "range": 130,
    "ident": "AKN",
    "areaCode": "PA",
    "name": "KING SALMON VORTAC"
  },
  {
    "lat": 55.060408333,
    "lon": -131.5784,
    "elevation": 174,
    "frequency": 11710,
    "range": 130,
    "ident": "ANN",
    "areaCode": "PA",
    "name": "ANNETTE ISLAND VOR/DME"
  },
  {
    "lat": 60.784836111,
    "lon": -161.824330556,
    "elevation": 105,
    "frequency": 11410,
    "range": 130,
    "ident": "BET",
    "areaCode": "PA",
    "name": "BETHEL VORTAC"
  },
  {
    "lat": 61.569455556,
    "lon": -149.967144444,
    "elevation": 160,
    "frequency": 11250,
    "range": 130,
    "ident": "BGQ",
    "areaCode": "PA",
    "name": "BIG LAKE VORTAC"
  },
  {
    "lat": 64.004380556,
    "lon": -145.717155556,
    "elevation": 1230,
    "frequency": 11490,
    "range": 130,
    "ident": "BIG",
    "areaCode": "PA",
    "name": "BIG DELTA VORTAC"
  },
  {
    "lat": 56.859408333,
    "lon": -135.551311111,
    "elevation": 260,
    "frequency": 11380,
    "range": 130,
    "ident": "BKA",
    "areaCode": "PA",
    "name": "BIORKA ISLAND (SITKA) VORTAC"
  },
  {
    "lat": 71.273425,
    "lon": -156.788116667,
    "elevation": 57,
    "frequency": 11620,
    "range": 130,
    "ident": "BRW",
    "areaCode": "PA",
    "name": "BARROW VOR/DME"
  },
  {
    "lat": 66.905008333,
    "lon": -151.535883333,
    "elevation": 634,
    "frequency": 11600,
    "range": 130,
    "ident": "BTT",
    "areaCode": "PA",
    "name": "BETTLES VOR/DME"
  },
  {
    "lat": 55.2673,
    "lon": -162.774,
    "elevation": 98,
    "frequency": 11260,
    "range": 130,
    "ident": "CDB",
    "areaCode": "PA",
    "name": "COLD BAY VORTAC"
  },
  {
    "lat": 58.994233333,
    "lon": -158.552219444,
    "elevation": 81,
    "frequency": 11640,
    "range": 130,
    "ident": "DLG",
    "areaCode": "PA",
    "name": "DILLINGHAM VOR/DME"
  },
  {
    "lat": 61.255,
    "lon": -149.769166667,
    "elevation": 226,
    "frequency": 11340,
    "range": 130,
    "ident": "EDF",
    "areaCode": "PA",
    "name": "ELMENDORF (ANCHORAGE) TACAN"
  },
  {
    "lat": 64.653794444,
    "lon": -147.093975,
    "elevation": 542,
    "frequency": 11510,
    "range": 130,
    "ident": "EIL",
    "areaCode": "PA",
    "name": "EIELSON (FAIRBANKS) TACAN"
  },
  {
    "lat": 60.614702778,
    "lon": -151.195241667,
    "elevation": 115,
    "frequency": 11760,
    "range": 130,
    "ident": "ENA",
    "areaCode": "PA",
    "name": "KENAI VOR/DME"
  },
  {
    "lat": 62.784588889,
    "lon": -164.487533333,
    "elevation": 17,
    "frequency": 11780,
    "range": 130,
    "ident": "ENM",
    "areaCode": "PA",
    "name": "EMMONAK VOR/DME"
  },
  {
    "lat": 64.590011111,
    "lon": -149.072872222,
    "elevation": 1600,
    "frequency": 11580,
    "range": 130,
    "ident": "ENN",
    "areaCode": "PA",
    "name": "NENANA VORTAC"
  },
  {
    "lat": 64.800069444,
    "lon": -148.011975,
    "elevation": 1526,
    "frequency": 10860,
    "range": 130,
    "ident": "FAI",
    "areaCode": "PA",
    "name": "FAIRBANKS VORTAC"
  },
  {
    "lat": 66.574252778,
    "lon": -145.276658333,
    "elevation": 449,
    "frequency": 11440,
    "range": 130,
    "ident": "FYU",
    "areaCode": "PA",
    "name": "FORT YUKON VORTAC"
  },
  {
    "lat": 64.738130556,
    "lon": -156.77715,
    "elevation": 150,
    "frequency": 11480,
    "range": 130,
    "ident": "GAL",
    "areaCode": "PA",
    "name": "GALENA VOR/DME"
  },
  {
    "lat": 62.153752778,
    "lon": -145.447363889,
    "elevation": 1549,
    "frequency": 11560,
    "range": 130,
    "ident": "GKN",
    "areaCode": "PA",
    "name": "GULKANA VOR/DME"
  },
  {
    "lat": 59.709430556,
    "lon": -151.4566,
    "elevation": 1626,
    "frequency": 11460,
    "range": 130,
    "ident": "HOM",
    "areaCode": "PA",
    "name": "HOMER VOR/DME"
  },
  {
    "lat": 61.514344444,
    "lon": -166.134486111,
    "elevation": 11,
    "frequency": 11520,
    "range": 130,
    "ident": "HPB",
    "areaCode": "PA",
    "name": "HOOPER BAY VOR/DME"
  },
  {
    "lat": 65.707875,
    "lon": -156.363086111,
    "elevation": 187,
    "frequency": 11740,
    "range": 130,
    "ident": "HSL",
    "areaCode": "PA",
    "name": "HUSLIA VOR/DME"
  },
  {
    "lat": 60.480952778,
    "lon": -146.599336111,
    "elevation": 48,
    "frequency": 11670,
    "range": 130,
    "ident": "JOH",
    "areaCode": "PA",
    "name": "JOHNSTONE POINT VOR/DME"
  },
  {
    "lat": 56.467708333,
    "lon": -133.083113889,
    "elevation": 98,
    "frequency": 11650,
    "range": 130,
    "ident": "LVD",
    "areaCode": "PA",
    "name": "LEVEL ISLAND VOR/DME"
  },
  {
    "lat": 62.951033333,
    "lon": -155.611380556,
    "elevation": 344,
    "frequency": 11550,
    "range": 130,
    "ident": "MCG",
    "areaCode": "PA",
    "name": "MCGRATH VORTAC"
  },
  {
    "lat": 59.421805556,
    "lon": -146.350013889,
    "elevation": 133,
    "frequency": 11530,
    "range": 130,
    "ident": "MDO",
    "areaCode": "PA",
    "name": "MIDDLETON ISLAND VOR/DME"
  },
  {
    "lat": 64.696525,
    "lon": -162.071266667,
    "elevation": 15,
    "frequency": 11630,
    "range": 40,
    "ident": "MOS",
    "areaCode": "PA",
    "name": "MOSES POINT (ELIM) VOR/DME"
  },
  {
    "lat": 51.871308333,
    "lon": -176.674119444,
    "elevation": 379,
    "frequency": 11300,
    "range": 130,
    "ident": "NUD",
    "areaCode": "PA",
    "name": "ADAK TACAN"
  },
  {
    "lat": 57.775036111,
    "lon": -152.339838889,
    "elevation": 133,
    "frequency": 11710,
    "range": 130,
    "ident": "ODK",
    "areaCode": "PA",
    "name": "KODIAK VOR/DME"
  },
  {
    "lat": 64.485108333,
    "lon": -165.253175,
    "elevation": 92,
    "frequency": 11500,
    "range": 130,
    "ident": "OME",
    "areaCode": "PA",
    "name": "NOME VOR/DME"
  },
  {
    "lat": 62.9472,
    "lon": -141.912608333,
    "elevation": 1779,
    "frequency": 11630,
    "range": 130,
    "ident": "ORT",
    "areaCode": "PA",
    "name": "NORTHWAY VORTAC"
  },
  {
    "lat": 66.885683333,
    "lon": -162.539936111,
    "elevation": 121,
    "frequency": 11570,
    "range": 130,
    "ident": "OTZ",
    "areaCode": "PA",
    "name": "KOTZEBUE VOR/DME"
  },
  {
    "lat": 70.199197222,
    "lon": -148.416158333,
    "elevation": 54,
    "frequency": 11390,
    "range": 130,
    "ident": "SCC",
    "areaCode": "PA",
    "name": "DEADHORSE VOR/DME"
  },
  {
    "lat": 61.098580556,
    "lon": -155.634580556,
    "elevation": 2501,
    "frequency": 11720,
    "range": 130,
    "ident": "SQA",
    "areaCode": "PA",
    "name": "SPARREVOHN VOR/DME"
  },
  {
    "lat": 58.177661111,
    "lon": -135.258863889,
    "elevation": 40,
    "frequency": 11400,
    "range": 130,
    "ident": "SSR",
    "areaCode": "PA",
    "name": "SISTERS ISLAND VORTAC"
  },
  {
    "lat": 52.718272222,
    "lon": 174.062072222,
    "elevation": 67,
    "frequency": 10900,
    "range": 130,
    "ident": "SYA",
    "areaCode": "PA",
    "name": "SHEMYA VORTAC"
  },
  {
    "lat": 65.177125,
    "lon": -152.17755,
    "elevation": 390,
    "frequency": 11660,
    "range": 130,
    "ident": "TAL",
    "areaCode": "PA",
    "name": "TANANA VOR/DME"
  },
  {
    "lat": 61.167866667,
    "lon": -149.960141667,
    "elevation": 85,
    "frequency": 11315,
    "range": 40,
    "ident": "TED",
    "areaCode": "PA",
    "name": "ANCHORAGE VOR/DME"
  },
  {
    "lat": 62.298377778,
    "lon": -150.10525,
    "elevation": 568,
    "frequency": 11620,
    "range": 130,
    "ident": "TKA",
    "areaCode": "PA",
    "name": "TALKEETNA VOR/DME"
  },
  {
    "lat": 48.373422222,
    "lon": -89.328780556,
    "elevation": 665,
    "frequency": 11250,
    "range": 130,
    "ident": "UAU",
    "areaCode": "CY",
    "name": "MCKAY (THUNDER BAY) TACAN"
  },
  {
    "lat": 44.633147222,
    "lon": -63.499955556,
    "elevation": 175,
    "frequency": 11010,
    "range": 25,
    "ident": "UAW",
    "areaCode": "CY",
    "name": "SHEARWATER (HALIFAX) TACAN"
  },
  {
    "lat": 63.692330556,
    "lon": -170.469902778,
    "elevation": 42,
    "frequency": 11730,
    "range": 130,
    "ident": "ULL",
    "areaCode": "PA",
    "name": "KUKULIAK (SAVOONGA) VOR/DME"
  },
  {
    "lat": 82.517305556,
    "lon": -62.311527778,
    "elevation": 72,
    "frequency": 11070,
    "range": 25,
    "ident": "ULT",
    "areaCode": "CY",
    "name": "ALERT TACAN"
  },
  {
    "lat": 63.891941667,
    "lon": -160.684275,
    "elevation": 436,
    "frequency": 11690,
    "range": 130,
    "ident": "UNK",
    "areaCode": "PA",
    "name": "UNALAKLEET VOR/DME"
  },
  {
    "lat": 54.408611111,
    "lon": -110.295833333,
    "elevation": 1806,
    "frequency": 11350,
    "range": 130,
    "ident": "UOD",
    "areaCode": "CY",
    "name": "COLD LAKE TACAN"
  },
  {
    "lat": 49.7125,
    "lon": -124.894444444,
    "elevation": 80,
    "frequency": 11040,
    "range": 130,
    "ident": "UQQ",
    "areaCode": "CY",
    "name": "COMOX TACAN"
  },
  {
    "lat": 44.121388889,
    "lon": -77.528888889,
    "elevation": 285,
    "frequency": 10970,
    "range": 25,
    "ident": "UTR",
    "areaCode": "CY",
    "name": "TRENTON TACAN"
  },
  {
    "lat": 53.319722222,
    "lon": -60.416666667,
    "elevation": 200,
    "frequency": 11030,
    "range": 25,
    "ident": "UYR",
    "areaCode": "CY",
    "name": "GOOSE (GOOSE BAY) TACAN"
  },
  {
    "lat": 44.983333333,
    "lon": -64.919444444,
    "elevation": 117,
    "frequency": 11760,
    "range": 40,
    "ident": "UZX",
    "areaCode": "CY",
    "name": "GREENWOOD TACAN"
  },
  {
    "lat": 49.476922222,
    "lon": -94.046736111,
    "elevation": 1307,
    "frequency": 11520,
    "range": 40,
    "ident": "VBI",
    "areaCode": "CY",
    "name": "SIOUX NARROWS VOR/DME"
  },
  {
    "lat": 48.017222222,
    "lon": -71.269166667,
    "elevation": 2893,
    "frequency": 11420,
    "range": 40,
    "ident": "VBS",
    "areaCode": "CY",
    "name": "SAGUENAY VOR/DME"
  },
  {
    "lat": 44.660833333,
    "lon": -77.888055556,
    "elevation": 1200,
    "frequency": 11510,
    "range": 40,
    "ident": "VIE",
    "areaCode": "CY",
    "name": "COEHILL VOR/DME"
  },
  {
    "lat": 50.666944444,
    "lon": -104.889722222,
    "elevation": 1900,
    "frequency": 11420,
    "range": 40,
    "ident": "VLN",
    "areaCode": "CY",
    "name": "LUMSDEN VORTAC"
  },
  {
    "lat": 50.422222222,
    "lon": -98.723611111,
    "elevation": 935,
    "frequency": 11220,
    "range": 40,
    "ident": "VLR",
    "areaCode": "CY",
    "name": "LANGRUTH VOR/DME"
  },
  {
    "lat": 45.925055556,
    "lon": -70.846038889,
    "elevation": 1609,
    "frequency": 11720,
    "range": 40,
    "ident": "VLV",
    "areaCode": "CY",
    "name": "BEAUCE VOR/DME"
  },
  {
    "lat": 66.599475,
    "lon": -159.990827778,
    "elevation": 11,
    "frequency": 11420,
    "range": 130,
    "ident": "WLK",
    "areaCode": "PA",
    "name": "SELAWIK VOR/DME"
  },
  {
    "lat": 48.329444444,
    "lon": -70.995555556,
    "elevation": 531,
    "frequency": 11180,
    "range": 130,
    "ident": "XBG",
    "areaCode": "CY",
    "name": "BAGOTVILLE TACAN"
  },
  {
    "lat": 59.510827778,
    "lon": -139.648130556,
    "elevation": 35,
    "frequency": 11330,
    "range": 130,
    "ident": "YAK",
    "areaCode": "PA",
    "name": "YAKUTAT VOR/DME"
  },
  {
    "lat": 49.778055556,
    "lon": -84.591111111,
    "elevation": 1300,
    "frequency": 11240,
    "range": 40,
    "ident": "YAN",
    "areaCode": "CY",
    "name": "AMESON VOR/DME"
  },
  {
    "lat": 51.393919444,
    "lon": -56.08375,
    "elevation": 133,
    "frequency": 11370,
    "range": 40,
    "ident": "YAY",
    "areaCode": "CY",
    "name": "SAINT ANTHONY VOR/DME"
  },
  {
    "lat": 49.134022222,
    "lon": -68.222030556,
    "elevation": 102,
    "frequency": 11770,
    "range": 40,
    "ident": "YBC",
    "areaCode": "CY",
    "name": "BAIE-COMEAU VOR/DME"
  },
  {
    "lat": 64.321433333,
    "lon": -96.104641667,
    "elevation": 354,
    "frequency": 11450,
    "range": 40,
    "ident": "YBK",
    "areaCode": "CY",
    "name": "BAKER LAKE VOR/DME"
  },
  {
    "lat": 49.909888889,
    "lon": -99.945675,
    "elevation": 1368,
    "frequency": 11380,
    "range": 40,
    "ident": "YBR",
    "areaCode": "CY",
    "name": "BRANDON VOR/DME"
  },
  {
    "lat": 51.107372222,
    "lon": -114.381869444,
    "elevation": 0,
    "frequency": 10860,
    "range": 40,
    "ident": "YBW",
    "areaCode": "CY",
    "name": "SPRINGBANK (CALGARY) VOR"
  },
  {
    "lat": 69.117447222,
    "lon": -105.172716667,
    "elevation": 108,
    "frequency": 11270,
    "range": 40,
    "ident": "YCB",
    "areaCode": "CY",
    "name": "CAMBRIDGE BAY VOR/DME"
  },
  {
    "lat": 44.333091667,
    "lon": -77.704591667,
    "elevation": 583,
    "frequency": 11350,
    "range": 40,
    "ident": "YCF",
    "areaCode": "CY",
    "name": "CAMPBELLFORD VOR/DME"
  },
  {
    "lat": 49.381541667,
    "lon": -120.373777778,
    "elevation": 5330,
    "frequency": 11390,
    "range": 40,
    "ident": "YDC",
    "areaCode": "CY",
    "name": "PRINCETON VOR/DME"
  },
  {
    "lat": 49.232363889,
    "lon": -57.213280556,
    "elevation": 466,
    "frequency": 11330,
    "range": 40,
    "ident": "YDF",
    "areaCode": "CY",
    "name": "DEER LAKE VOR/DME"
  },
  {
    "lat": 51.104933333,
    "lon": -100.052341667,
    "elevation": 1021,
    "frequency": 11610,
    "range": 40,
    "ident": "YDN",
    "areaCode": "CY",
    "name": "DAUPHIN VOR/DME"
  },
  {
    "lat": 50.362944444,
    "lon": -102.540316667,
    "elevation": 2024,
    "frequency": 11750,
    "range": 40,
    "ident": "YDR",
    "areaCode": "CY",
    "name": "BROADVIEW VOR/DME"
  },
  {
    "lat": 50.926136111,
    "lon": -109.989547222,
    "elevation": 2278,
    "frequency": 11590,
    "range": 40,
    "ident": "YEA",
    "areaCode": "CY",
    "name": "EMPRESS VOR/DME"
  },
  {
    "lat": 44.5818,
    "lon": -79.793208333,
    "elevation": 996,
    "frequency": 11280,
    "range": 40,
    "ident": "YEE",
    "areaCode": "CY",
    "name": "MIDLAND VOR/DME"
  },
  {
    "lat": 53.185580556,
    "lon": -113.866841667,
    "elevation": 2561,
    "frequency": 11760,
    "range": 40,
    "ident": "YEG",
    "areaCode": "CY",
    "name": "EDMONTON VOR/DME"
  },
  {
    "lat": 68.308069444,
    "lon": -133.548261111,
    "elevation": 268,
    "frequency": 11250,
    "range": 40,
    "ident": "YEV",
    "areaCode": "CY",
    "name": "INUVIK VOR/DME"
  },
  {
    "lat": 63.741666667,
    "lon": -68.473333333,
    "elevation": 0,
    "frequency": 11740,
    "range": 40,
    "ident": "YFB",
    "areaCode": "CY",
    "name": "FROBAY (IQALUIT) VOR"
  },
  {
    "lat": 45.894783333,
    "lon": -66.418902778,
    "elevation": 52,
    "frequency": 11300,
    "range": 40,
    "ident": "YFC",
    "areaCode": "CY",
    "name": "FREDERICTON VOR/DME"
  },
  {
    "lat": 61.773875,
    "lon": -121.298763889,
    "elevation": 590,
    "frequency": 11790,
    "range": 40,
    "ident": "YFS",
    "areaCode": "CY",
    "name": "FORT SIMPSON VOR/DME"
  },
  {
    "lat": 66.236263889,
    "lon": -128.62305,
    "elevation": 290,
    "frequency": 11230,
    "range": 40,
    "ident": "YGH",
    "areaCode": "CY",
    "name": "FORT GOOD HOPE VOR/DME"
  },
  {
    "lat": 53.625511111,
    "lon": -77.716233333,
    "elevation": 626,
    "frequency": 11220,
    "range": 40,
    "ident": "YGL",
    "areaCode": "CY",
    "name": "LA GRANDE RIVIERE VOR/DME"
  },
  {
    "lat": 48.763138889,
    "lon": -64.404666667,
    "elevation": 338,
    "frequency": 11540,
    "range": 40,
    "ident": "YGP",
    "areaCode": "CY",
    "name": "GASPE VOR/DME"
  },
  {
    "lat": 49.769719444,
    "lon": -86.984322222,
    "elevation": 1221,
    "frequency": 11420,
    "range": 40,
    "ident": "YGQ",
    "areaCode": "CY",
    "name": "GERALDTON VOR/DME"
  },
  {
    "lat": 47.430166667,
    "lon": -61.773930556,
    "elevation": 45,
    "frequency": 11200,
    "range": 40,
    "ident": "YGR",
    "areaCode": "CY",
    "name": "GRINDSTONE VOR/DME"
  },
  {
    "lat": 60.836266667,
    "lon": -115.803269444,
    "elevation": 577,
    "frequency": 11390,
    "range": 40,
    "ident": "YHY",
    "areaCode": "CY",
    "name": "HAY RIVER VOR/DME"
  },
  {
    "lat": 44.923055556,
    "lon": -63.401944444,
    "elevation": 650,
    "frequency": 11510,
    "range": 40,
    "ident": "YHZ",
    "areaCode": "CY",
    "name": "HALIFAX VOR/DME"
  },
  {
    "lat": 45.255811111,
    "lon": -73.321280556,
    "elevation": 189,
    "frequency": 11580,
    "range": 40,
    "ident": "YJN",
    "areaCode": "CY",
    "name": "ST-JEAN VOR/DME"
  },
  {
    "lat": 48.582469444,
    "lon": -58.669183333,
    "elevation": 1284,
    "frequency": 11310,
    "range": 40,
    "ident": "YJT",
    "areaCode": "CY",
    "name": "STEPHENVILLE VOR/DME"
  },
  {
    "lat": 57.167225,
    "lon": -105.841022222,
    "elevation": 1915,
    "frequency": 11530,
    "range": 40,
    "ident": "YKJ",
    "areaCode": "CY",
    "name": "KEY LAKE VOR/DME"
  },
  {
    "lat": 54.814491667,
    "lon": -66.754894444,
    "elevation": 2035,
    "frequency": 11270,
    "range": 40,
    "ident": "YKL",
    "areaCode": "CY",
    "name": "SCHEFFERVILLE VOR/DME"
  },
  {
    "lat": 50.331111111,
    "lon": -105.563333333,
    "elevation": 1898,
    "frequency": 11340,
    "range": 130,
    "ident": "YMJ",
    "areaCode": "CY",
    "name": "MOOSE JAW VORTAC"
  },
  {
    "lat": 56.647222222,
    "lon": -111.122222222,
    "elevation": 1205,
    "frequency": 11200,
    "range": 40,
    "ident": "YMM",
    "areaCode": "CY",
    "name": "FORT MCMURRAY VOR/DME"
  },
  {
    "lat": 51.291388889,
    "lon": -80.607222222,
    "elevation": 40,
    "frequency": 11290,
    "range": 40,
    "ident": "YMO",
    "areaCode": "CY",
    "name": "MOOSONEE VOR/DME"
  },
  {
    "lat": 44.143163889,
    "lon": -80.146419444,
    "elevation": 1687,
    "frequency": 11450,
    "range": 40,
    "ident": "YMS",
    "areaCode": "CY",
    "name": "MANS (MANSFIELD) VOR/DME"
  },
  {
    "lat": 45.888191667,
    "lon": -74.3757,
    "elevation": 1663,
    "frequency": 11670,
    "range": 40,
    "ident": "YMX",
    "areaCode": "CY",
    "name": "MIRABEL (MONTREAL) VOR/DME"
  },
  {
    "lat": 50.183611111,
    "lon": -61.780880556,
    "elevation": 57,
    "frequency": 11360,
    "range": 40,
    "ident": "YNA",
    "areaCode": "CY",
    "name": "NATASH (NATASHQUAN) VOR/DME"
  },
  {
    "lat": 50.677827778,
    "lon": -118.938788889,
    "elevation": 6647,
    "frequency": 11520,
    "range": 40,
    "ident": "YNY",
    "areaCode": "CY",
    "name": "ENDERBY VOR/DME"
  },
  {
    "lat": 58.554261111,
    "lon": -117.093016667,
    "elevation": 1112,
    "frequency": 11330,
    "range": 40,
    "ident": "YOJ",
    "areaCode": "CY",
    "name": "HIGH LEVEL VOR/DME"
  },
  {
    "lat": 45.441744444,
    "lon": -75.896863889,
    "elevation": 482,
    "frequency": 11460,
    "range": 40,
    "ident": "YOW",
    "areaCode": "CY",
    "name": "OTTAWA VOR/DME"
  },
  {
    "lat": 53.216402778,
    "lon": -105.666483333,
    "elevation": 1430,
    "frequency": 11300,
    "range": 40,
    "ident": "YPA",
    "areaCode": "CY",
    "name": "PRINCE ALBERT VOR/DME"
  },
  {
    "lat": 56.206922222,
    "lon": -117.5118,
    "elevation": 1919,
    "frequency": 11720,
    "range": 40,
    "ident": "YPE",
    "areaCode": "CY",
    "name": "PEACE RIVER VOR/DME"
  },
  {
    "lat": 49.899666667,
    "lon": -98.26725,
    "elevation": 900,
    "frequency": 11460,
    "range": 40,
    "ident": "YPG",
    "areaCode": "CY",
    "name": "PORTAGE (PORTAGE LA PRAIR VOR/DME"
  },
  {
    "lat": 49.215933333,
    "lon": -122.714880556,
    "elevation": 0,
    "frequency": 11240,
    "range": 40,
    "ident": "YPK",
    "areaCode": "CY",
    "name": "PITT MEADOWS VOR"
  },
  {
    "lat": 46.705308333,
    "lon": -71.626261111,
    "elevation": 237,
    "frequency": 11280,
    "range": 40,
    "ident": "YQB",
    "areaCode": "CY",
    "name": "QUEBEC VORTAC"
  },
  {
    "lat": 53.973477778,
    "lon": -101.099908333,
    "elevation": 910,
    "frequency": 11360,
    "range": 40,
    "ident": "YQD",
    "areaCode": "CY",
    "name": "THE PAS VOR/DME"
  },
  {
    "lat": 42.249711111,
    "lon": -82.828936111,
    "elevation": 641,
    "frequency": 11380,
    "range": 40,
    "ident": "YQG",
    "areaCode": "CY",
    "name": "WINDSOR VOR/DME"
  },
  {
    "lat": 60.086525,
    "lon": -128.857580556,
    "elevation": 2509,
    "frequency": 11490,
    "range": 40,
    "ident": "YQH",
    "areaCode": "CY",
    "name": "WATSON LAKE VOR/DME"
  },
  {
    "lat": 43.825113889,
    "lon": -66.082475,
    "elevation": 150,
    "frequency": 11330,
    "range": 40,
    "ident": "YQI",
    "areaCode": "CY",
    "name": "YARMOUTH VOR/DME"
  },
  {
    "lat": 49.634405556,
    "lon": -112.667883333,
    "elevation": 3100,
    "frequency": 11570,
    "range": 40,
    "ident": "YQL",
    "areaCode": "CY",
    "name": "LETHBRIDGE VOR/DME"
  },
  {
    "lat": 46.188888889,
    "lon": -64.570833333,
    "elevation": 172,
    "frequency": 11730,
    "range": 40,
    "ident": "YQM",
    "areaCode": "CY",
    "name": "MONCTON VOR/DME"
  },
  {
    "lat": 42.706808333,
    "lon": -80.887955556,
    "elevation": 754,
    "frequency": 11420,
    "range": 40,
    "ident": "YQO",
    "areaCode": "CY",
    "name": "AYLMER VOR/DME"
  },
  {
    "lat": 48.253888889,
    "lon": -89.437222222,
    "elevation": 1641,
    "frequency": 11410,
    "range": 40,
    "ident": "YQT",
    "areaCode": "CY",
    "name": "THUNDER BAY VOR/DME"
  },
  {
    "lat": 55.174208333,
    "lon": -119.030205556,
    "elevation": 2515,
    "frequency": 11310,
    "range": 40,
    "ident": "YQU",
    "areaCode": "CY",
    "name": "GRANDE PRAIRIE VOR/DME"
  },
  {
    "lat": 51.264055556,
    "lon": -102.468722222,
    "elevation": 1675,
    "frequency": 11580,
    "range": 40,
    "ident": "YQV",
    "areaCode": "CY",
    "name": "YORKTON VOR/DME"
  },
  {
    "lat": 48.899591667,
    "lon": -54.535011111,
    "elevation": 617,
    "frequency": 11270,
    "range": 40,
    "ident": "YQX",
    "areaCode": "CY",
    "name": "GANDER VOR/DME"
  },
  {
    "lat": 46.153377778,
    "lon": -60.055766667,
    "elevation": 258,
    "frequency": 11490,
    "range": 40,
    "ident": "YQY",
    "areaCode": "CY",
    "name": "SYDNEY VOR/DME"
  },
  {
    "lat": 74.727933333,
    "lon": -94.922730556,
    "elevation": 603,
    "frequency": 11210,
    "range": 40,
    "ident": "YRB",
    "areaCode": "CY",
    "name": "RESOLUTE BAY VOR/DME"
  },
  {
    "lat": 47.757522222,
    "lon": -69.589769444,
    "elevation": 0,
    "frequency": 11390,
    "range": 40,
    "ident": "YRI",
    "areaCode": "CY",
    "name": "RIVIERE DU LOUP VOR"
  },
  {
    "lat": 51.071552778,
    "lon": -93.762036111,
    "elevation": 1278,
    "frequency": 11400,
    "range": 40,
    "ident": "YRL",
    "areaCode": "CY",
    "name": "RED LAKE VOR/DME"
  },
  {
    "lat": 52.502194444,
    "lon": -115.323563889,
    "elevation": 3543,
    "frequency": 11430,
    "range": 40,
    "ident": "YRM",
    "areaCode": "CY",
    "name": "ROCKY MOUNTAIN HOUSE VOR/DME"
  },
  {
    "lat": 62.813969444,
    "lon": -92.117338889,
    "elevation": 137,
    "frequency": 11240,
    "range": 40,
    "ident": "YRT",
    "areaCode": "CY",
    "name": "RANKIN INLET VOR/DME"
  },
  {
    "lat": 46.629144444,
    "lon": -80.798230556,
    "elevation": 1171,
    "frequency": 11230,
    "range": 40,
    "ident": "YSB",
    "areaCode": "CY",
    "name": "SUDBURY VOR/DME"
  },
  {
    "lat": 45.316319444,
    "lon": -71.788108333,
    "elevation": 919,
    "frequency": 11320,
    "range": 40,
    "ident": "YSC",
    "areaCode": "CY",
    "name": "SHERBROOKE VOR/DME"
  },
  {
    "lat": 45.407222222,
    "lon": -65.870833333,
    "elevation": 494,
    "frequency": 11350,
    "range": 40,
    "ident": "YSJ",
    "areaCode": "CY",
    "name": "SAINT JOHN VOR/DME"
  },
  {
    "lat": 60.020088889,
    "lon": -111.969347222,
    "elevation": 708,
    "frequency": 11240,
    "range": 40,
    "ident": "YSM",
    "areaCode": "CY",
    "name": "FORT SMITH VOR/DME"
  },